{"type":"FeatureCollection","features":[{"type":"Feature","geometry":{"type":"Point","coordinates":[-8.67561036003551,40.8700463321416]},"properties":{"nome":"Cool and Sea Beach House"}},{"type":"Feature","geometry":{"type":"Point","coordinates":[-8.67503600059902,40.8712200009172]},"properties":{"nome":"Manuel Pereira Valente"}},{"type":"Feature","geometry":{"type":"Point","coordinates":[-8.66489501008645,40.8727167439806]},"properties":{"nome":"Pine Beach Residences"}},{"type":"Feature","geometry":{"type":"Point","coordinates":[-8.55656118629638,40.6855397882047]},"properties":{"nome":"Motel Eclipse"}},{"type":"Feature","geometry":{"type":"Point","coordinates":[-8.74989707066513,40.6117300497965]},"properties":{"nome":"PENS\u00c3O JOS\u00c9 DAS HORTAS"}},{"type":"Feature","geometry":{"type":"Point","coordinates":[-8.6756417345951,40.8721462913679]},"properties":{"nome":"Furadouro Terrace Hostel"}},{"type":"Feature","geometry":{"type":"Point","coordinates":[-8.66489501008645,40.8727167439806]},"properties":{"nome":"Pine Beach Residences"}},{"type":"Feature","geometry":{"type":"Point","coordinates":[-8.70855555565096,40.6393333330921]},"properties":{"nome":"RIVERA"}},{"type":"Feature","geometry":{"type":"Point","coordinates":[-8.74703393863203,40.6403107803183]},"properties":{"nome":"CASA DA BARRA"}},{"type":"Feature","geometry":{"type":"Point","coordinates":[-8.69316666743568,40.587416666379]},"properties":{"nome":"VARANDAS DA RIA"}},{"type":"Feature","geometry":{"type":"Point","coordinates":[-8.59441303568924,40.8030422022604]},"properties":{"nome":"Areia do Gonde"}},{"type":"Feature","geometry":{"type":"Point","coordinates":[-8.56304660313448,40.7426611973922]},"properties":{"nome":"Casa do Sino"}},{"type":"Feature","geometry":{"type":"Point","coordinates":[-8.67658249527641,40.8739821181217]},"properties":{"nome":"Furadouro Surf Camp"}},{"type":"Feature","geometry":{"type":"Point","coordinates":[-8.57195271645689,40.7525005361099]},"properties":{"nome":"Residencialmir Unipessoal Lda"}},{"type":"Feature","geometry":{"type":"Point","coordinates":[-8.65358095186514,40.639575548156]},"properties":{"nome":"Yellow Inn Aveiro"}},{"type":"Feature","geometry":{"type":"Point","coordinates":[-8.70789268880282,40.7620264739072]},"properties":{"nome":"Apartamento Torreira"}},{"type":"Feature","geometry":{"type":"Point","coordinates":[-8.6475969377877,40.6429428429575]},"properties":{"nome":"Welcome In Suites e Hostel"}},{"type":"Feature","geometry":{"type":"Point","coordinates":[-8.65523909725088,40.6427472042277]},"properties":{"nome":"Morgan & Jacob's Guesthouse"}},{"type":"Feature","geometry":{"type":"Point","coordinates":[-8.65481877013953,40.6434312975715]},"properties":{"nome":"Aveiro LUZ"}},{"type":"Feature","geometry":{"type":"Point","coordinates":[-8.6506964587929,40.6435144608183]},"properties":{"nome":"Baga de Sal"}},{"type":"Feature","geometry":{"type":"Point","coordinates":[-8.64127572130545,40.6442283205479]},"properties":{"nome":"Tricana de Aveiro Alojamento Local"}},{"type":"Feature","geometry":{"type":"Point","coordinates":[-8.75084606979592,40.6123625033532]},"properties":{"nome":"MARIA ADELAIDE AGUALUSA ROSA SANTOS"}},{"type":"Feature","geometry":{"type":"Point","coordinates":[-8.65741592000018,40.6433246816303]},"properties":{"nome":"City & Ria"}},{"type":"Feature","geometry":{"type":"Point","coordinates":[-8.74730089008669,40.6258022135682]},"properties":{"nome":"CASA BELO HORIZONTE"}},{"type":"Feature","geometry":{"type":"Point","coordinates":[-8.65652109377262,40.6426860443854]},"properties":{"nome":"Aveiro Rossio Hostel, Lda"}},{"type":"Feature","geometry":{"type":"Point","coordinates":[-8.70103615636127,40.7602487445818]},"properties":{"nome":"O Veleiro"}},{"type":"Feature","geometry":{"type":"Point","coordinates":[-8.74604356669256,40.6271708325676]},"properties":{"nome":"CASA DO BICO DA BIARRITZ"}},{"type":"Feature","geometry":{"type":"Point","coordinates":[-8.710139163326,40.7600289369408]},"properties":{"nome":"See U Inn"}},{"type":"Feature","geometry":{"type":"Point","coordinates":[-8.65762197466173,40.6427981280048]},"properties":{"nome":"Aveiro Rossio Logde"}},{"type":"Feature","geometry":{"type":"Point","coordinates":[-8.65091365705554,40.6379049586794]},"properties":{"nome":"Hospedaria 5 Bicas"}},{"type":"Feature","geometry":{"type":"Point","coordinates":[-8.59244479725735,40.6610609000581]},"properties":{"nome":"A Talha"}},{"type":"Feature","geometry":{"type":"Point","coordinates":[-8.65741592000018,40.6433246816303]},"properties":{"nome":"Saberamar one"}},{"type":"Feature","geometry":{"type":"Point","coordinates":[-8.6508324277943,40.6423627931782]},"properties":{"nome":"Hospedaria Familiar"}},{"type":"Feature","geometry":{"type":"Point","coordinates":[-8.65325730324132,40.6419082899208]},"properties":{"nome":"Residencial Beira"}},{"type":"Feature","geometry":{"type":"Point","coordinates":[-8.65437974998545,40.6423255923871]},"properties":{"nome":"Pens\u00e3o Ferro - Alojamento Local"}},{"type":"Feature","geometry":{"type":"Point","coordinates":[-8.74179937911465,40.6383623229115]},"properties":{"nome":"O NINHO"}},{"type":"Feature","geometry":{"type":"Point","coordinates":[-8.6531074220311,40.6443213532344]},"properties":{"nome":"Casa da Beira Mar"}},{"type":"Feature","geometry":{"type":"Point","coordinates":[-8.65198249953007,40.6293900010691]},"properties":{"nome":"Next University"}},{"type":"Feature","geometry":{"type":"Point","coordinates":[-8.65139205575842,40.6353736210157]},"properties":{"nome":"Up Red"}},{"type":"Feature","geometry":{"type":"Point","coordinates":[-8.64943650962315,40.643002607276]},"properties":{"nome":"Fernando Guest House"}},{"type":"Feature","geometry":{"type":"Point","coordinates":[-8.65612210973414,40.6424857664018]},"properties":{"nome":"Maria Jos\u00e9 Rosa Soares Carinho C\u00f3ia"}},{"type":"Feature","geometry":{"type":"Point","coordinates":[-8.74973390247358,40.6100300237272]},"properties":{"nome":"CASA GOLFINHO"}},{"type":"Feature","geometry":{"type":"Point","coordinates":[-8.61636756478908,40.6532459349484]},"properties":{"nome":"O RODRIGO"}},{"type":"Feature","geometry":{"type":"Point","coordinates":[-8.64127572130545,40.6442283205479]},"properties":{"nome":"Residencial Sta Joana"}},{"type":"Feature","geometry":{"type":"Point","coordinates":[-8.62849360390749,40.6748743428287]},"properties":{"nome":"A CASA DA TI LAURA"}},{"type":"Feature","geometry":{"type":"Point","coordinates":[-8.74973390247358,40.6100300237272]},"properties":{"nome":"casa golfinho"}},{"type":"Feature","geometry":{"type":"Point","coordinates":[-8.74617638620057,40.6395786981117]},"properties":{"nome":"FERNANDES LAVRADOR - AL"}},{"type":"Feature","geometry":{"type":"Point","coordinates":[-8.65332423761145,40.6416959364074]},"properties":{"nome":"Estrela Palace"}},{"type":"Feature","geometry":{"type":"Point","coordinates":[-8.70195587760032,40.6432304478968]},"properties":{"nome":"VALDEMIRO TAVARES RIBEIRO"}},{"type":"Feature","geometry":{"type":"Point","coordinates":[-8.49401366878274,40.6300603916029]},"properties":{"nome":"Quinta da Fontoura, Lda"}},{"type":"Feature","geometry":{"type":"Point","coordinates":[-8.62983349954425,40.8464520006861]},"properties":{"nome":"Be & See in Nature"}},{"type":"Feature","geometry":{"type":"Point","coordinates":[-8.75242512211414,40.6179193027689]},"properties":{"nome":"APARTAMENTO FRENTE AO MAR"}},{"type":"Feature","geometry":{"type":"Point","coordinates":[-8.75050614549578,40.6164528731942]},"properties":{"nome":"BELA VISTA"}},{"type":"Feature","geometry":{"type":"Point","coordinates":[-8.70654049972141,40.7180220009916]},"properties":{"nome":"Pedro Mendon\u00e7a"}},{"type":"Feature","geometry":{"type":"Point","coordinates":[-8.74426021502085,40.6436422945941]},"properties":{"nome":"INFANTE DOM HENRIQUE - AL"}},{"type":"Feature","geometry":{"type":"Point","coordinates":[-8.69140250018518,40.777224001087]},"properties":{"nome":"Pedro Manuel Guedes de Pinho de Bastos Monteiro"}},{"type":"Feature","geometry":{"type":"Point","coordinates":[-8.76681239687244,40.5643165961003]},"properties":{"nome":"Slide Surf Camp"}},{"type":"Feature","geometry":{"type":"Point","coordinates":[-8.7447405702544,40.6428973484513]},"properties":{"nome":"VISTA FAROL"}},{"type":"Feature","geometry":{"type":"Point","coordinates":[-8.67706721093234,40.8737640801789]},"properties":{"nome":"Alojamento Local - Avenida"}},{"type":"Feature","geometry":{"type":"Point","coordinates":[-8.56782325092735,40.6236582721657]},"properties":{"nome":"Casa d' Eixo"}},{"type":"Feature","geometry":{"type":"Point","coordinates":[-8.65360177122018,40.6420698145753]},"properties":{"nome":"Urban City"}},{"type":"Feature","geometry":{"type":"Point","coordinates":[-8.74736552656634,40.6424175262084]},"properties":{"nome":"ANT\u00d3NIO PINTO"}},{"type":"Feature","geometry":{"type":"Point","coordinates":[-8.7427001629692,40.6411816593057]},"properties":{"nome":"JORMAR"}},{"type":"Feature","geometry":{"type":"Point","coordinates":[-8.70017535652006,40.7615336245479]},"properties":{"nome":"casa da Varanda "}},{"type":"Feature","geometry":{"type":"Point","coordinates":[-8.45035180179643,40.5832539189504]},"properties":{"nome":"RESIDENCIAL CELESTE"}},{"type":"Feature","geometry":{"type":"Point","coordinates":[-8.54811910402216,40.7033054165989]},"properties":{"nome":"Casa Vila Palmeira"}},{"type":"Feature","geometry":{"type":"Point","coordinates":[-8.65540367759407,40.6432007863516]},"properties":{"nome":"Casa do Mercado"}},{"type":"Feature","geometry":{"type":"Point","coordinates":[-8.65072250005466,40.6454910011067]},"properties":{"nome":"Apart T1"}},{"type":"Feature","geometry":{"type":"Point","coordinates":[-8.74973390247358,40.6100300237272]},"properties":{"nome":"CASA DO GOLFINHO"}},{"type":"Feature","geometry":{"type":"Point","coordinates":[-8.7509510648863,40.6142823498574]},"properties":{"nome":"CN"}},{"type":"Feature","geometry":{"type":"Point","coordinates":[-8.64325250002075,40.6426200012903]},"properties":{"nome":"AVEIRO URBAN FLAT"}},{"type":"Feature","geometry":{"type":"Point","coordinates":[-8.69873382369544,40.764650085762]},"properties":{"nome":"Casa de Mar e Ria"}},{"type":"Feature","geometry":{"type":"Point","coordinates":[-8.74909579139801,40.6100357985868]},"properties":{"nome":"L'ALCIB\u00cdADES"}},{"type":"Feature","geometry":{"type":"Point","coordinates":[-8.67323745122935,40.8718112075269]},"properties":{"nome":"Oceanus Premium Apartment"}},{"type":"Feature","geometry":{"type":"Point","coordinates":[-8.6527571599187,40.6392104085939]},"properties":{"nome":"Green Balconies"}},{"type":"Feature","geometry":{"type":"Point","coordinates":[-8.73519975047135,40.6652895010294]},"properties":{"nome":"DUNAS VILLA"}},{"type":"Feature","geometry":{"type":"Point","coordinates":[-8.71212950031389,40.7610150006522]},"properties":{"nome":"Casa de f\u00e9rias"}},{"type":"Feature","geometry":{"type":"Point","coordinates":[-8.64232100007171,40.6439520013419]},"properties":{"nome":"AVEIRO.train.STUDIOS"}},{"type":"Feature","geometry":{"type":"Point","coordinates":[-8.76494149988473,40.5644550007421]},"properties":{"nome":"Casa Cremers - Maison au Portugal"}},{"type":"Feature","geometry":{"type":"Point","coordinates":[-8.53253095600214,40.6505824101023]},"properties":{"nome":"Vale da Silva Villas"}},{"type":"Feature","geometry":{"type":"Point","coordinates":[-8.74516696997706,40.6363704631479]},"properties":{"nome":"CASA PRAIA SOL"}},{"type":"Feature","geometry":{"type":"Point","coordinates":[-8.74916666667731,40.6096666675723]},"properties":{"nome":"Margarita\u00b4s Ville"}},{"type":"Feature","geometry":{"type":"Point","coordinates":[-8.69907365996066,40.7636223971714]},"properties":{"nome":"Adriano Gabriel Henriques dos Santos"}},{"type":"Feature","geometry":{"type":"Point","coordinates":[-8.72355050027482,40.6315680010635]},"properties":{"nome":"LE TOUT - VACANCES AU PORTUGAL"}},{"type":"Feature","geometry":{"type":"Point","coordinates":[-8.64682099999476,40.6289580006061]},"properties":{"nome":"Aveiro Sul"}},{"type":"Feature","geometry":{"type":"Point","coordinates":[-8.75986999986279,40.5615660007382]},"properties":{"nome":"VagueiraHouse"}},{"type":"Feature","geometry":{"type":"Point","coordinates":[-8.64335802601551,40.7496019407599]},"properties":{"nome":"Retiro da Atafona "}},{"type":"Feature","geometry":{"type":"Point","coordinates":[-8.71170302243781,40.7597993834278]},"properties":{"nome":"Edificio Palage "}},{"type":"Feature","geometry":{"type":"Point","coordinates":[-8.72412200037375,40.6276350008935]},"properties":{"nome":"LE TOUT - VILLA AU PORUGAL"}},{"type":"Feature","geometry":{"type":"Point","coordinates":[-8.74640912980922,40.6267755826973]},"properties":{"nome":"Palheiro Amarelo da Biarritz"}},{"type":"Feature","geometry":{"type":"Point","coordinates":[-8.64828753383205,40.6436258471128]},"properties":{"nome":"Feelings Aveiro Apartment"}},{"type":"Feature","geometry":{"type":"Point","coordinates":[-8.73889099983902,40.6405140007008]},"properties":{"nome":"CASA DAS RISCAS"}},{"type":"Feature","geometry":{"type":"Point","coordinates":[-8.74332350035157,40.6407210008922]},"properties":{"nome":"Casa da Barra"}},{"type":"Feature","geometry":{"type":"Point","coordinates":[-8.65419200029445,40.6427820006807]},"properties":{"nome":"Casa da Pra\u00e7a"}},{"type":"Feature","geometry":{"type":"Point","coordinates":[-8.65203759590138,40.642910000813]},"properties":{"nome":"Casa dos P\u00e1tios II"}},{"type":"Feature","geometry":{"type":"Point","coordinates":[-8.62657789985172,40.6712516975457]},"properties":{"nome":"Casa do Pa\u00e7o"}},{"type":"Feature","geometry":{"type":"Point","coordinates":[-8.64909643440604,40.6264812525507]},"properties":{"nome":"Fernando Castanheira"}},{"type":"Feature","geometry":{"type":"Point","coordinates":[-8.53264053609374,40.6506692495672]},"properties":{"nome":"Vale da Silva Villas"}},{"type":"Feature","geometry":{"type":"Point","coordinates":[-8.73412550013883,40.667118001116]},"properties":{"nome":"Dunas"}},{"type":"Feature","geometry":{"type":"Point","coordinates":[-8.74694444397187,40.6410277785282]},"properties":{"nome":"UP ROYAL"}},{"type":"Feature","geometry":{"type":"Point","coordinates":[-8.74758564525198,40.6417022831516]},"properties":{"nome":"HOUSE BARRA BEACH"}},{"type":"Feature","geometry":{"type":"Point","coordinates":[-8.65400750070812,40.6383540010415]},"properties":{"nome":"AVEIRO DOWNTOWN"}},{"type":"Feature","geometry":{"type":"Point","coordinates":[-8.65538403233714,40.6404089894816]},"properties":{"nome":"Casa do Cais"}},{"type":"Feature","geometry":{"type":"Point","coordinates":[-8.65167726996283,40.6391752053699]},"properties":{"nome":"VIC \/\/ Aveiro Arts House"}},{"type":"Feature","geometry":{"type":"Point","coordinates":[-8.74710638596308,40.6398285884419]},"properties":{"nome":"Habita\u00e7\u00e3o Oliveira"}},{"type":"Feature","geometry":{"type":"Point","coordinates":[-8.70654049972141,40.7180220009916]},"properties":{"nome":"Laura da Concei\u00e7\u00e3o Teixeira Alves"}},{"type":"Feature","geometry":{"type":"Point","coordinates":[-8.55518484061862,40.7166312678784]},"properties":{"nome":"P\u00e1tio"}},{"type":"Feature","geometry":{"type":"Point","coordinates":[-8.65325485084061,40.6426882378685]},"properties":{"nome":"PONTO DE ABRIGO"}},{"type":"Feature","geometry":{"type":"Point","coordinates":[-8.65937354932858,40.6394430610626]},"properties":{"nome":"Casa do Canal"}},{"type":"Feature","geometry":{"type":"Point","coordinates":[-8.74131199995389,40.6429350015238]},"properties":{"nome":"APARTAMENTO RIA MAR"}},{"type":"Feature","geometry":{"type":"Point","coordinates":[-8.67658249527641,40.8739821181217]},"properties":{"nome":"Furadouro Surf Camp"}},{"type":"Feature","geometry":{"type":"Point","coordinates":[-8.74689232641403,40.640570065148]},"properties":{"nome":"RESIDENCIAL TROPIC\u00c1LIA ALOJAMENTO LOCAL"}},{"type":"Feature","geometry":{"type":"Point","coordinates":[-8.64975049956105,40.6430700009741]},"properties":{"nome":"Aveiro Guest House"}},{"type":"Feature","geometry":{"type":"Point","coordinates":[-8.70442353710937,40.7632445529007]},"properties":{"nome":"Apartamento Areal"}},{"type":"Feature","geometry":{"type":"Point","coordinates":[-8.66485529377111,40.8329824835749]},"properties":{"nome":"Cristiana Sofia Gon\u00e7alves Sousa"}},{"type":"Feature","geometry":{"type":"Point","coordinates":[-8.75122099964605,40.6155120006066]},"properties":{"nome":"Apartamento Velamarina"}},{"type":"Feature","geometry":{"type":"Point","coordinates":[-8.6582374993961,40.6427280007003]},"properties":{"nome":"Aveiro Flat Ria View"}},{"type":"Feature","geometry":{"type":"Point","coordinates":[-8.65489502183582,40.6421876828974]},"properties":{"nome":"Harbour49 - Flats & Suites"}},{"type":"Feature","geometry":{"type":"Point","coordinates":[-8.64235946683053,40.6439761435077]},"properties":{"nome":"Dona Dores House"}},{"type":"Feature","geometry":{"type":"Point","coordinates":[-8.65205363442246,40.6428603640341]},"properties":{"nome":"Casa dos P\u00e1tios I"}},{"type":"Feature","geometry":{"type":"Point","coordinates":[-8.62407962755439,40.8586141111988]},"properties":{"nome":"S. Thom\u00e9 apts"}},{"type":"Feature","geometry":{"type":"Point","coordinates":[-8.64561621456998,40.645461950599]},"properties":{"nome":"Apartamento Central Aveiro"}},{"type":"Feature","geometry":{"type":"Point","coordinates":[-8.6406747025663,40.6476423605033]},"properties":{"nome":"Like Aveiro"}},{"type":"Feature","geometry":{"type":"Point","coordinates":[-8.6478347209451,40.6346295649407]},"properties":{"nome":"Aveiro Ria Rent"}},{"type":"Feature","geometry":{"type":"Point","coordinates":[-8.64975049956105,40.6430700009741]},"properties":{"nome":"Aveiro Guest House"}},{"type":"Feature","geometry":{"type":"Point","coordinates":[-8.6559074995178,40.7513866687936]},"properties":{"nome":"casada Magn\u00f3lia"}},{"type":"Feature","geometry":{"type":"Point","coordinates":[-8.67691879577269,40.8698042073659]},"properties":{"nome":"Alojamento Praia"}},{"type":"Feature","geometry":{"type":"Point","coordinates":[-8.65563232757998,40.639648663763]},"properties":{"nome":"Home Sweet Home Aveiro Arrochela"}},{"type":"Feature","geometry":{"type":"Point","coordinates":[-8.65003439234367,40.6374169148996]},"properties":{"nome":"Home for You Aveiro"}},{"type":"Feature","geometry":{"type":"Point","coordinates":[-8.63992003238768,40.6159699955502]},"properties":{"nome":"ROTA AVEIRO"}},{"type":"Feature","geometry":{"type":"Point","coordinates":[-8.65508128391672,40.6429732796265]},"properties":{"nome":"Primetierra"}},{"type":"Feature","geometry":{"type":"Point","coordinates":[-8.65508128391672,40.6429732796265]},"properties":{"nome":"Primetierra"}},{"type":"Feature","geometry":{"type":"Point","coordinates":[-8.65712149986074,40.6317930003584]},"properties":{"nome":"IlustreAparts"}},{"type":"Feature","geometry":{"type":"Point","coordinates":[-8.62892884664581,40.6545572824577]},"properties":{"nome":"Casa da Ribeira"}},{"type":"Feature","geometry":{"type":"Point","coordinates":[-8.64404450058931,40.6310280006168]},"properties":{"nome":"Reis e Rego Guest House"}},{"type":"Feature","geometry":{"type":"Point","coordinates":[-8.67431995348604,40.8732514268042]},"properties":{"nome":"Furadouro Surf Camp"}},{"type":"Feature","geometry":{"type":"Point","coordinates":[-8.65508034068567,40.642993103363]},"properties":{"nome":"Inn Pier Aveiro"}},{"type":"Feature","geometry":{"type":"Point","coordinates":[-8.65508128391672,40.6429732796265]},"properties":{"nome":"Primetierra"}},{"type":"Feature","geometry":{"type":"Point","coordinates":[-8.65509199991973,40.6435020014699]},"properties":{"nome":"Primetierra"}},{"type":"Feature","geometry":{"type":"Point","coordinates":[-8.44677679442654,40.5717634022373]},"properties":{"nome":"XPT \u00c1GUEDA - ALOJAMENTO LOCAL"}},{"type":"Feature","geometry":{"type":"Point","coordinates":[-8.74217249975783,40.640724000831]},"properties":{"nome":"BEACH T3 DUPLEX"}},{"type":"Feature","geometry":{"type":"Point","coordinates":[-8.74609649992066,40.6367820011008]},"properties":{"nome":"AVEIRO E PRAIA"}},{"type":"Feature","geometry":{"type":"Point","coordinates":[-8.65508128391672,40.6429732796265]},"properties":{"nome":"Primetierra"}},{"type":"Feature","geometry":{"type":"Point","coordinates":[-8.65509199991973,40.6435020014699]},"properties":{"nome":"Primetierra"}},{"type":"Feature","geometry":{"type":"Point","coordinates":[-8.65508128391672,40.6429732796265]},"properties":{"nome":"Primetierra"}},{"type":"Feature","geometry":{"type":"Point","coordinates":[-8.65075506757696,40.7400981210991]},"properties":{"nome":"Maisoin proche de la mer"}},{"type":"Feature","geometry":{"type":"Point","coordinates":[-8.47604531673813,40.5368788547207]},"properties":{"nome":"QUINTA DO VALE DO CRUZ"}},{"type":"Feature","geometry":{"type":"Point","coordinates":[-8.65294945957663,40.6436685096761]},"properties":{"nome":"Casa do Vento"}},{"type":"Feature","geometry":{"type":"Point","coordinates":[-8.65462826351891,40.6445479951724]},"properties":{"nome":"Seaside House"}},{"type":"Feature","geometry":{"type":"Point","coordinates":[-8.63958049975302,40.6495500003966]},"properties":{"nome":"Alto das Marinhas"}},{"type":"Feature","geometry":{"type":"Point","coordinates":[-8.5428074331208,40.6621942866129]},"properties":{"nome":"Casa Vale da Mulher"}},{"type":"Feature","geometry":{"type":"Point","coordinates":[-8.65261822468021,40.6428518252857]},"properties":{"nome":"Casa Amarela"}},{"type":"Feature","geometry":{"type":"Point","coordinates":[-8.65149726913943,40.6390582056247]},"properties":{"nome":"HOSTEL CIDADE AVEIRO"}},{"type":"Feature","geometry":{"type":"Point","coordinates":[-8.65706219757729,40.6427418861606]},"properties":{"nome":"AVEIRO ROSSIO BED & BREAKFAST"}},{"type":"Feature","geometry":{"type":"Point","coordinates":[-8.65294945957663,40.6436685096761]},"properties":{"nome":"Casa do Vento"}},{"type":"Feature","geometry":{"type":"Point","coordinates":[-8.70654049972141,40.7180220009916]},"properties":{"nome":"Casa da Gaivina"}},{"type":"Feature","geometry":{"type":"Point","coordinates":[-8.65327652898503,40.6428065413405]},"properties":{"nome":"Aveiro Duplex"}},{"type":"Feature","geometry":{"type":"Point","coordinates":[-8.65152785677487,40.6425190102357]},"properties":{"nome":"RIVERS HOUSE"}},{"type":"Feature","geometry":{"type":"Point","coordinates":[-8.74710350057437,40.6419990007796]},"properties":{"nome":"DIAMANTE AZUL-BARRA BEACH APARTMENT "}},{"type":"Feature","geometry":{"type":"Point","coordinates":[-8.74710350057437,40.6419990007796]},"properties":{"nome":"THE LIGHTHOUSE APARTMENT"}},{"type":"Feature","geometry":{"type":"Point","coordinates":[-8.74984399999478,40.6105800004897]},"properties":{"nome":"CESTARIA-CANASTRA"}},{"type":"Feature","geometry":{"type":"Point","coordinates":[-8.74529625910598,40.6424193563904]},"properties":{"nome":"Aveiro Beach House"}},{"type":"Feature","geometry":{"type":"Point","coordinates":[-8.65529082134662,40.6404370067588]},"properties":{"nome":"Casa da Clara"}},{"type":"Feature","geometry":{"type":"Point","coordinates":[-8.66405889684755,40.8708320409151]},"properties":{"nome":"Golden Waves Surf Lodge"}},{"type":"Feature","geometry":{"type":"Point","coordinates":[-8.56471497853465,40.6297125658374]},"properties":{"nome":"A Casa de Eixo"}},{"type":"Feature","geometry":{"type":"Point","coordinates":[-8.65322623410891,40.6443406599084]},"properties":{"nome":"Casa da Porta Azul"}},{"type":"Feature","geometry":{"type":"Point","coordinates":[-8.64314273487621,40.6451105441708]},"properties":{"nome":"Casa da Av\u00f3"}},{"type":"Feature","geometry":{"type":"Point","coordinates":[-8.750578499402,40.6156500006552]},"properties":{"nome":"belleview.charm"}},{"type":"Feature","geometry":{"type":"Point","coordinates":[-8.72727199951138,40.6438440011858]},"properties":{"nome":"JARDIM OUDINOT"}},{"type":"Feature","geometry":{"type":"Point","coordinates":[-8.65508128391672,40.6429732796265]},"properties":{"nome":"Primetierra"}},{"type":"Feature","geometry":{"type":"Point","coordinates":[-8.65508128391672,40.6429732796265]},"properties":{"nome":"Primetierra"}},{"type":"Feature","geometry":{"type":"Point","coordinates":[-8.65264591614717,40.6421511977253]},"properties":{"nome":"Aveiro City Center"}},{"type":"Feature","geometry":{"type":"Point","coordinates":[-8.64492650067125,40.6408380011314]},"properties":{"nome":"Aveiro-City-Beach-Nature"}},{"type":"Feature","geometry":{"type":"Point","coordinates":[-8.74990892663026,40.6118412811234]},"properties":{"nome":"CESTARIA-RIA"}},{"type":"Feature","geometry":{"type":"Point","coordinates":[-8.75023199943398,40.6117890012158]},"properties":{"nome":"CASA DOS AFECTOS"}},{"type":"Feature","geometry":{"type":"Point","coordinates":[-8.65425317646362,40.6425265149926]},"properties":{"nome":"Marnoto\u00b4s City Apartament"}},{"type":"Feature","geometry":{"type":"Point","coordinates":[-8.70654049972141,40.7180220009916]},"properties":{"nome":"Rianatur Villas"}},{"type":"Feature","geometry":{"type":"Point","coordinates":[-8.65211847392136,40.6428441767419]},"properties":{"nome":"Beira Mar Loft"}},{"type":"Feature","geometry":{"type":"Point","coordinates":[-8.67535100024329,40.8718410009169]},"properties":{"nome":"Barramares"}},{"type":"Feature","geometry":{"type":"Point","coordinates":[-8.64921663977084,40.6368787082421]},"properties":{"nome":"Apartamento Rua Infante D. Henrique"}},{"type":"Feature","geometry":{"type":"Point","coordinates":[-8.63886499971403,40.7585651011554]},"properties":{"nome":"\"MIKE CHAL\u00c9\""}},{"type":"Feature","geometry":{"type":"Point","coordinates":[-8.6437340006063,40.6455990006425]},"properties":{"nome":"Casa do Canto"}},{"type":"Feature","geometry":{"type":"Point","coordinates":[-8.65280324169614,40.7501812569927]},"properties":{"nome":"Mikes Apartamento"}},{"type":"Feature","geometry":{"type":"Point","coordinates":[-8.7450299993541,40.640121000883]},"properties":{"nome":"Casa da Paia"}},{"type":"Feature","geometry":{"type":"Point","coordinates":[-8.67535100024329,40.8718410009169]},"properties":{"nome":"Barramares"}},{"type":"Feature","geometry":{"type":"Point","coordinates":[-8.67577850040216,40.872687001251]},"properties":{"nome":"Varandas do Sol"}},{"type":"Feature","geometry":{"type":"Point","coordinates":[-8.67122773308918,40.872544635921]},"properties":{"nome":"Nine Senses Guest House"}},{"type":"Feature","geometry":{"type":"Point","coordinates":[-8.66906784807456,40.6004338445199]},"properties":{"nome":"Beco da Malha"}},{"type":"Feature","geometry":{"type":"Point","coordinates":[-8.57138519409805,40.7540422046052]},"properties":{"nome":"O SOLAR DA VILA"}},{"type":"Feature","geometry":{"type":"Point","coordinates":[-8.6482855153176,40.6430001834136]},"properties":{"nome":"Aveiro Central Flat"}},{"type":"Feature","geometry":{"type":"Point","coordinates":[-8.64975791695035,40.6274977407949]},"properties":{"nome":"HappyHouse"}},{"type":"Feature","geometry":{"type":"Point","coordinates":[-8.44583966204067,40.5723060010344]},"properties":{"nome":"AGUEDA HOSTEL & FRIENDS"}},{"type":"Feature","geometry":{"type":"Point","coordinates":[-8.71205402116877,40.7595433472961]},"properties":{"nome":"Edificio V\u00e9rtimo"}},{"type":"Feature","geometry":{"type":"Point","coordinates":[-8.75007449961184,40.61136600116]},"properties":{"nome":"Palheiro Moderno"}},{"type":"Feature","geometry":{"type":"Point","coordinates":[-8.63557996672121,40.6380799895322]},"properties":{"nome":"Martini's spot"}},{"type":"Feature","geometry":{"type":"Point","coordinates":[-8.67698551005559,40.8697098865341]},"properties":{"nome":"Furadouro Beach Spot"}},{"type":"Feature","geometry":{"type":"Point","coordinates":[-8.74990465873435,40.6182991639166]},"properties":{"nome":"Casa dos Far\u00f3is"}},{"type":"Feature","geometry":{"type":"Point","coordinates":[-8.6361988897823,40.6369549032599]},"properties":{"nome":"Aveiro Urban Loft"}},{"type":"Feature","geometry":{"type":"Point","coordinates":[-8.49410765771428,40.5143624491149]},"properties":{"nome":"Piso Oliveira 35"}},{"type":"Feature","geometry":{"type":"Point","coordinates":[-8.75215350031831,40.618197000744]},"properties":{"nome":"Capuchinho Costa Nova"}},{"type":"Feature","geometry":{"type":"Point","coordinates":[-8.63886499971403,40.7585651011554]},"properties":{"nome":"Urbaniza\u00e7\u00e3o Quinta dos Leites"}},{"type":"Feature","geometry":{"type":"Point","coordinates":[-8.64343172739468,40.6424681775843]},"properties":{"nome":"Aveiro Urban Apartment"}},{"type":"Feature","geometry":{"type":"Point","coordinates":[-8.74073699912031,40.6415340005002]},"properties":{"nome":"APARTAMENTO NOVO"}},{"type":"Feature","geometry":{"type":"Point","coordinates":[-8.65264591614717,40.6421511977253]},"properties":{"nome":"Ria do Sal"}},{"type":"Feature","geometry":{"type":"Point","coordinates":[-8.6537620692944,40.6421361526812]},"properties":{"nome":"Casa da Pra\u00e7a - Downtown Shelter"}},{"type":"Feature","geometry":{"type":"Point","coordinates":[-8.65117126243799,40.6351222503855]},"properties":{"nome":"Alma Portuguesa"}},{"type":"Feature","geometry":{"type":"Point","coordinates":[-8.64357924873062,40.6436809873972]},"properties":{"nome":"Casa da Luz apartment"}},{"type":"Feature","geometry":{"type":"Point","coordinates":[-8.74618636109347,40.6396787072528]},"properties":{"nome":"Casas e Quintas de Praia"}},{"type":"Feature","geometry":{"type":"Point","coordinates":[-8.75123784036267,40.6187679535861]},"properties":{"nome":"CASA DO PRADO"}},{"type":"Feature","geometry":{"type":"Point","coordinates":[-8.63886499971403,40.7585651011554]},"properties":{"nome":"Casa dos Ameirinhos"}},{"type":"Feature","geometry":{"type":"Point","coordinates":[-8.73108350005791,40.6636710007074]},"properties":{"nome":"Casa da Ilha dos Ovos"}},{"type":"Feature","geometry":{"type":"Point","coordinates":[-8.6361988897823,40.6369549032599]},"properties":{"nome":"Aveirobestloft"}},{"type":"Feature","geometry":{"type":"Point","coordinates":[-8.74618636109347,40.6396787072528]},"properties":{"nome":"Casas e Quintas de Praia"}},{"type":"Feature","geometry":{"type":"Point","coordinates":[-8.65560602041688,40.6424312351906]},"properties":{"nome":"Walk Aveiro"}},{"type":"Feature","geometry":{"type":"Point","coordinates":[-8.67584626032406,40.8743136364168]},"properties":{"nome":"Golden Pier"}},{"type":"Feature","geometry":{"type":"Point","coordinates":[-8.78275788752599,40.4702045761851]},"properties":{"nome":"Quinta S\u00e3o Jos\u00e9"}},{"type":"Feature","geometry":{"type":"Point","coordinates":[-8.6425369999818,40.6451940004597]},"properties":{"nome":"Rua de Viseu"}},{"type":"Feature","geometry":{"type":"Point","coordinates":[-8.65508128391672,40.6429732796265]},"properties":{"nome":"S. Gon\u00e7alinho - Aveiro Suites Apartments"}},{"type":"Feature","geometry":{"type":"Point","coordinates":[-8.74710350057437,40.6419990007796]},"properties":{"nome":"Apartamento Farol"}},{"type":"Feature","geometry":{"type":"Point","coordinates":[-8.71066770598803,40.7592796613839]},"properties":{"nome":"Apartamento Marinheiros"}},{"type":"Feature","geometry":{"type":"Point","coordinates":[-8.74990465873435,40.6182991639166]},"properties":{"nome":"Casa dos Far\u00f3is"}},{"type":"Feature","geometry":{"type":"Point","coordinates":[-8.65399812768647,40.644775594]},"properties":{"nome":"Casa da Ponte Amarela"}},{"type":"Feature","geometry":{"type":"Point","coordinates":[-8.65318400071413,40.6443480008736]},"properties":{"nome":"Casa do Patio Amarelo"}},{"type":"Feature","geometry":{"type":"Point","coordinates":[-8.57138519409805,40.7540422046052]},"properties":{"nome":"O SOLAR DA VILA"}},{"type":"Feature","geometry":{"type":"Point","coordinates":[-8.75121200032353,40.6167360010518]},"properties":{"nome":"COSTA NOVA"}},{"type":"Feature","geometry":{"type":"Point","coordinates":[-8.76794300031938,40.5593880006472]},"properties":{"nome":"Secret Guest House"}},{"type":"Feature","geometry":{"type":"Point","coordinates":[-8.6749291998949,40.8745459213033]},"properties":{"nome":"Apartamento Praia"}},{"type":"Feature","geometry":{"type":"Point","coordinates":[-8.65615819416078,40.6421422424072]},"properties":{"nome":"Hist\u00f3rias por Metro Quadrado"}},{"type":"Feature","geometry":{"type":"Point","coordinates":[-8.66632104068423,40.871028434725]},"properties":{"nome":"Maria Teresa Ferreira de Oliveira"}},{"type":"Feature","geometry":{"type":"Point","coordinates":[-8.80031525763316,40.4632819178682]},"properties":{"nome":"S\u00f3t\u00e3o da Duna"}},{"type":"Feature","geometry":{"type":"Point","coordinates":[-8.71460500031876,40.6178769906042]},"properties":{"nome":"F&A"}},{"type":"Feature","geometry":{"type":"Point","coordinates":[-8.65398870346082,40.6396827270018]},"properties":{"nome":"MAR AVEIRO I"}},{"type":"Feature","geometry":{"type":"Point","coordinates":[-8.65398870346082,40.6396827270018]},"properties":{"nome":"MAR AVEIRO IV"}},{"type":"Feature","geometry":{"type":"Point","coordinates":[-8.65398870346082,40.6396827270018]},"properties":{"nome":"MAR AVEIRO V"}},{"type":"Feature","geometry":{"type":"Point","coordinates":[-8.74618636109347,40.6396787072528]},"properties":{"nome":"Casas e Quintas de Praia"}},{"type":"Feature","geometry":{"type":"Point","coordinates":[-8.65526609072686,40.6403536597212]},"properties":{"nome":"Casa Aveiro Canal da Ria"}},{"type":"Feature","geometry":{"type":"Point","coordinates":[-8.5434056401331,40.5434395635591]},"properties":{"nome":"CENTEN\u00c1RIA"}},{"type":"Feature","geometry":{"type":"Point","coordinates":[-8.65398870346082,40.6396827270018]},"properties":{"nome":"MAR AVEIRO II"}},{"type":"Feature","geometry":{"type":"Point","coordinates":[-8.75007449961184,40.61136600116]},"properties":{"nome":"Casa Machado"}},{"type":"Feature","geometry":{"type":"Point","coordinates":[-8.65504712996961,40.6430748452855]},"properties":{"nome":"Primetierra Apartamento 1\u00ba esquerdo"}},{"type":"Feature","geometry":{"type":"Point","coordinates":[-8.65504712996961,40.6430748452855]},"properties":{"nome":"Primetierra Apartamento 2\u00ba esquerdo"}},{"type":"Feature","geometry":{"type":"Point","coordinates":[-8.71205402116877,40.7595433472961]},"properties":{"nome":"Apart.Dunas"}},{"type":"Feature","geometry":{"type":"Point","coordinates":[-8.6557940000766,40.6433670008485]},"properties":{"nome":"AVEIRO ROSSIO APARTMENTS LOFT"}},{"type":"Feature","geometry":{"type":"Point","coordinates":[-8.65762327901551,40.6427490010009]},"properties":{"nome":"Apartamento Ria de Aveiro"}},{"type":"Feature","geometry":{"type":"Point","coordinates":[-8.65359762729176,40.6421437379141]},"properties":{"nome":"Cantinho do SAL"}},{"type":"Feature","geometry":{"type":"Point","coordinates":[-8.65425317646362,40.6425265149926]},"properties":{"nome":"Heart of Aveiro apartment"}},{"type":"Feature","geometry":{"type":"Point","coordinates":[-8.49417448608322,40.6293539929561]},"properties":{"nome":"Quinta da Av\u00f3 Am\u00e9lia"}},{"type":"Feature","geometry":{"type":"Point","coordinates":[-8.60204896174266,40.8499950007558]},"properties":{"nome":"Shining House"}},{"type":"Feature","geometry":{"type":"Point","coordinates":[-8.65119616733092,40.6369001016719]},"properties":{"nome":"Casa do Parque"}},{"type":"Feature","geometry":{"type":"Point","coordinates":[-8.64413694082533,40.6434080658555]},"properties":{"nome":"The Bohemian Place"}},{"type":"Feature","geometry":{"type":"Point","coordinates":[-8.74710350057437,40.6419990007796]},"properties":{"nome":"Carlos Almeida"}},{"type":"Feature","geometry":{"type":"Point","coordinates":[-8.65340311149003,40.6454320794308]},"properties":{"nome":"Aurora"}},{"type":"Feature","geometry":{"type":"Point","coordinates":[-8.64786950011965,40.6419450008475]},"properties":{"nome":"Home Sweet Home Aveiro"}},{"type":"Feature","geometry":{"type":"Point","coordinates":[-8.74310972556846,40.6407024136748]},"properties":{"nome":"BARRA'S BEACH APARTEMENT"}},{"type":"Feature","geometry":{"type":"Point","coordinates":[-8.65398870346082,40.6396827270018]},"properties":{"nome":"MAR AVEIRO III"}},{"type":"Feature","geometry":{"type":"Point","coordinates":[-8.74506049985295,40.6415310012794]},"properties":{"nome":"Casa da Ilha"}},{"type":"Feature","geometry":{"type":"Point","coordinates":[-8.74595699964187,40.6373040014967]},"properties":{"nome":"SOSSEGO DA RIA"}},{"type":"Feature","geometry":{"type":"Point","coordinates":[-8.64161683587334,40.6438818070882]},"properties":{"nome":"Aveiro White House"}},{"type":"Feature","geometry":{"type":"Point","coordinates":[-8.64624327007933,40.6424864507596]},"properties":{"nome":"Aveiro Train Flat"}},{"type":"Feature","geometry":{"type":"Point","coordinates":[-8.74919137214425,40.6193816287262]},"properties":{"nome":"Apartamento Velamarina X"}},{"type":"Feature","geometry":{"type":"Point","coordinates":[-8.65504712996961,40.6430748452855]},"properties":{"nome":"Primetierra Apartamento 2\u00ba direito"}},{"type":"Feature","geometry":{"type":"Point","coordinates":[-8.75159550010147,40.6081710010435]},"properties":{"nome":"CASA DA PRAIA"}},{"type":"Feature","geometry":{"type":"Point","coordinates":[-8.74599749928814,40.6383750006731]},"properties":{"nome":"Barra Sol"}},{"type":"Feature","geometry":{"type":"Point","coordinates":[-8.72782060245202,40.6254408713333]},"properties":{"nome":"COSTA NOVA SURF HOUSE"}},{"type":"Feature","geometry":{"type":"Point","coordinates":[-8.60204896174266,40.8499950007558]},"properties":{"nome":"\"Calma House\""}},{"type":"Feature","geometry":{"type":"Point","coordinates":[-8.66926995464043,40.5987236095874]},"properties":{"nome":"P\u00c1TIO DOS VASINHOS"}},{"type":"Feature","geometry":{"type":"Point","coordinates":[-8.6557940000766,40.6433670008485]},"properties":{"nome":"AVEIRO ROSSIO APARTMENTS STUDIO 1"}},{"type":"Feature","geometry":{"type":"Point","coordinates":[-8.6546361794732,40.6427965991128]},"properties":{"nome":"A Lodge In Blue"}},{"type":"Feature","geometry":{"type":"Point","coordinates":[-8.65508128391672,40.6429732796265]},"properties":{"nome":"S. Gon\u00e7alinho - Aveiro Suites Apartments"}},{"type":"Feature","geometry":{"type":"Point","coordinates":[-8.67023450001552,40.6014360009149]},"properties":{"nome":"GALERA FAM\u00cdLIA"}},{"type":"Feature","geometry":{"type":"Point","coordinates":[-8.65088237861567,40.6397253464142]},"properties":{"nome":"Casa Pirosa"}},{"type":"Feature","geometry":{"type":"Point","coordinates":[-8.60204896174266,40.8499950007558]},"properties":{"nome":"Buc\u00f3lico Verde"}},{"type":"Feature","geometry":{"type":"Point","coordinates":[-8.65704590483297,40.6393803296862]},"properties":{"nome":"CHARMING NINNA"}},{"type":"Feature","geometry":{"type":"Point","coordinates":[-8.65504712996961,40.6430748452855]},"properties":{"nome":"Primetierra Apartamento 1\u00ba direito"}},{"type":"Feature","geometry":{"type":"Point","coordinates":[-8.65061574606292,40.6424190598805]},"properties":{"nome":"Albergue dos Cagar\u00e9us"}},{"type":"Feature","geometry":{"type":"Point","coordinates":[-8.6747670171552,40.8728078971511]},"properties":{"nome":"Praia do Furadouro, near Aveiro\/Porto"}},{"type":"Feature","geometry":{"type":"Point","coordinates":[-8.67452462743702,40.8745267608486]},"properties":{"nome":"Casa do L\u00facio"}},{"type":"Feature","geometry":{"type":"Point","coordinates":[-8.67540141010378,40.8735278711444]},"properties":{"nome":"FURADOURO HOUSE"}},{"type":"Feature","geometry":{"type":"Point","coordinates":[-8.6557940000766,40.6433670008485]},"properties":{"nome":"AVEIRO ROSSIO APARTMENTS STUDIO 2"}},{"type":"Feature","geometry":{"type":"Point","coordinates":[-8.7507295717783,40.6140580382732]},"properties":{"nome":"DUNAS DA BELA VISTA"}},{"type":"Feature","geometry":{"type":"Point","coordinates":[-8.74247281823541,40.6428446825096]},"properties":{"nome":"POOL & TENNIS BEACH HOUSE"}},{"type":"Feature","geometry":{"type":"Point","coordinates":[-8.64574100044442,40.6231980008049]},"properties":{"nome":"O S\u00f3t\u00e3o do Av\u00f4"}},{"type":"Feature","geometry":{"type":"Point","coordinates":[-8.74984399999478,40.6105800004897]},"properties":{"nome":"APARTAMENTOS COSTA NOVA"}},{"type":"Feature","geometry":{"type":"Point","coordinates":[-8.74506049985295,40.6415310012794]},"properties":{"nome":"BURRA.PT"}},{"type":"Feature","geometry":{"type":"Point","coordinates":[-8.76662899951898,40.5614310010499]},"properties":{"nome":"Praia da Vagueira"}},{"type":"Feature","geometry":{"type":"Point","coordinates":[-8.74606727952111,40.6412371158472]},"properties":{"nome":"BARRA BEACH HOME"}},{"type":"Feature","geometry":{"type":"Point","coordinates":[-8.64489049978794,40.6470210011784]},"properties":{"nome":"Lovely Apartment Aveiro"}},{"type":"Feature","geometry":{"type":"Point","coordinates":[-8.74715300044147,40.6427460011531]},"properties":{"nome":"The Seagull Beach House"}},{"type":"Feature","geometry":{"type":"Point","coordinates":[-8.65668115020006,40.6398780107081]},"properties":{"nome":"Alboi Loft"}},{"type":"Feature","geometry":{"type":"Point","coordinates":[-8.70654049972141,40.7180220009916]},"properties":{"nome":"casa dos Sinos "}},{"type":"Feature","geometry":{"type":"Point","coordinates":[-8.67023450001552,40.6014360009149]},"properties":{"nome":"GALERA"}},{"type":"Feature","geometry":{"type":"Point","coordinates":[-8.68828396903197,40.6276291239239]},"properties":{"nome":"CASA DOS PINGOS DE MEL"}},{"type":"Feature","geometry":{"type":"Point","coordinates":[-8.65323182162999,40.6419264160157]},"properties":{"nome":"CASA JOS\u00c9 ESTEV\u00c3O"}},{"type":"Feature","geometry":{"type":"Point","coordinates":[-8.65323182162999,40.6419264160157]},"properties":{"nome":"AVEIRO BY JOS\u00c9 ESTEV\u00c3O"}},{"type":"Feature","geometry":{"type":"Point","coordinates":[-8.74296394426923,40.6410265113478]},"properties":{"nome":"AVERMAR"}},{"type":"Feature","geometry":{"type":"Point","coordinates":[-8.64918949178466,40.6425771621961]},"properties":{"nome":"Quartos d'Anjo"}},{"type":"Feature","geometry":{"type":"Point","coordinates":[-8.65526932196692,40.644452295657]},"properties":{"nome":"Up House"}},{"type":"Feature","geometry":{"type":"Point","coordinates":[-8.64333799987289,40.8534810014364]},"properties":{"nome":"La Roseraie"}},{"type":"Feature","geometry":{"type":"Point","coordinates":[-8.74705049997262,40.6370520007574]},"properties":{"nome":"COPACABANA"}},{"type":"Feature","geometry":{"type":"Point","coordinates":[-8.75253661292237,40.6175738174185]},"properties":{"nome":"CASA DA PRAIA - COSTA NOVA"}},{"type":"Feature","geometry":{"type":"Point","coordinates":[-8.74919137214425,40.6193816287262]},"properties":{"nome":"APARTAMENTOS COSTA NOVA"}},{"type":"Feature","geometry":{"type":"Point","coordinates":[-8.65425317646362,40.6425265149926]},"properties":{"nome":"Enjoy Aveiro Apartment"}},{"type":"Feature","geometry":{"type":"Point","coordinates":[-8.65327652898503,40.6428065413405]},"properties":{"nome":"Lovely Aveiro Center Apartment"}},{"type":"Feature","geometry":{"type":"Point","coordinates":[-8.74710350057437,40.6419990007796]},"properties":{"nome":"SUNSET HOUSE"}},{"type":"Feature","geometry":{"type":"Point","coordinates":[-8.65529082134662,40.6404370067588]},"properties":{"nome":"Casa da Clara II"}},{"type":"Feature","geometry":{"type":"Point","coordinates":[-8.60204896174266,40.8499950007558]},"properties":{"nome":"ALOJAMENTO DA CARLOTA"}},{"type":"Feature","geometry":{"type":"Point","coordinates":[-8.64404000002975,40.6429530012391]},"properties":{"nome":"Aveiro Perfect Spot"}},{"type":"Feature","geometry":{"type":"Point","coordinates":[-8.76615199949302,40.5615660007382]},"properties":{"nome":"Laura Guest House"}},{"type":"Feature","geometry":{"type":"Point","coordinates":[-8.65748376616033,40.639687870126]},"properties":{"nome":"Jardim \u00e0 Vista"}},{"type":"Feature","geometry":{"type":"Point","coordinates":[-8.70715249946658,40.7572620003482]},"properties":{"nome":"Mikes Beach House"}},{"type":"Feature","geometry":{"type":"Point","coordinates":[-8.65445751174972,40.642253954086]},"properties":{"nome":"1"}},{"type":"Feature","geometry":{"type":"Point","coordinates":[-8.6417160503049,40.6441021435369]},"properties":{"nome":"SOLDOURO GUESTHOUSE"}},{"type":"Feature","geometry":{"type":"Point","coordinates":[-8.74977069926425,40.6218562604306]},"properties":{"nome":"Empreendimento Biarritz"}},{"type":"Feature","geometry":{"type":"Point","coordinates":[-8.70395299956355,40.7574510013376]},"properties":{"nome":"Casa do Chapim "}},{"type":"Feature","geometry":{"type":"Point","coordinates":[-8.65605050053125,40.6432770007369]},"properties":{"nome":"Canal Apartment Aveiro"}},{"type":"Feature","geometry":{"type":"Point","coordinates":[-8.74063453368576,40.5938357046685]},"properties":{"nome":"BEAUTIFUL VIEW"}},{"type":"Feature","geometry":{"type":"Point","coordinates":[-8.67327134017342,40.8727103893653]},"properties":{"nome":"Casas da Praia"}},{"type":"Feature","geometry":{"type":"Point","coordinates":[-8.66522599974276,40.872498001536]},"properties":{"nome":"PINE BEACH RESIDENCES"}},{"type":"Feature","geometry":{"type":"Point","coordinates":[-8.66522599974276,40.872498001536]},"properties":{"nome":"PINE BEACH RESIDENCES"}},{"type":"Feature","geometry":{"type":"Point","coordinates":[-8.66486034769288,40.8713304968659]},"properties":{"nome":"URBANIZA\u00c7\u00c3O PINHAL DO FURADOURO"}},{"type":"Feature","geometry":{"type":"Point","coordinates":[-8.66533966267736,40.871412270977]},"properties":{"nome":"Les Transats Du Furadouro"}},{"type":"Feature","geometry":{"type":"Point","coordinates":[-8.65345072040347,40.6394594427717]},"properties":{"nome":"CENTRAL TILED APARTMENT"}},{"type":"Feature","geometry":{"type":"Point","coordinates":[-8.65034780466483,40.6437415778579]},"properties":{"nome":"Gravito 31"}},{"type":"Feature","geometry":{"type":"Point","coordinates":[-8.75165753865332,40.6178853668493]},"properties":{"nome":"FLAT MAR"}},{"type":"Feature","geometry":{"type":"Point","coordinates":[-8.62387452241211,40.8595871854861]},"properties":{"nome":"Aqua Charm Apartments"}},{"type":"Feature","geometry":{"type":"Point","coordinates":[-8.63709615403752,40.639802868781]},"properties":{"nome":"AVEIROAPARTEMENT"}},{"type":"Feature","geometry":{"type":"Point","coordinates":[-8.65754157095222,40.6423005825869]},"properties":{"nome":"HOME AVEIRO RIA"}},{"type":"Feature","geometry":{"type":"Point","coordinates":[-8.675742143786,40.8748782471235]},"properties":{"nome":"Marrafa's Appartment"}},{"type":"Feature","geometry":{"type":"Point","coordinates":[-8.76494149988473,40.5644550007421]},"properties":{"nome":"Vagueira Guest House"}},{"type":"Feature","geometry":{"type":"Point","coordinates":[-8.65479066185432,40.6426114856865]},"properties":{"nome":"AVEIRO'S DOCK APARTMENTS "}},{"type":"Feature","geometry":{"type":"Point","coordinates":[-8.74707750063511,40.6422450008266]},"properties":{"nome":"A nossa praia"}},{"type":"Feature","geometry":{"type":"Point","coordinates":[-8.66522599974276,40.872498001536]},"properties":{"nome":"Pine Beach Spot"}},{"type":"Feature","geometry":{"type":"Point","coordinates":[-8.67698551005559,40.8697098865341]},"properties":{"nome":"APARTAMENTO BARRAMARES"}},{"type":"Feature","geometry":{"type":"Point","coordinates":[-8.67209760501647,40.8734125886681]},"properties":{"nome":"Apartamento Furadouro registo 04351"}},{"type":"Feature","geometry":{"type":"Point","coordinates":[-8.6417160503049,40.6441021435369]},"properties":{"nome":"SOLDOURO GUESTHOUSE"}},{"type":"Feature","geometry":{"type":"Point","coordinates":[-8.69140250018518,40.777224001087]},"properties":{"nome":"Casa da Torreira"}},{"type":"Feature","geometry":{"type":"Point","coordinates":[-8.76955148863283,40.5618664592725]},"properties":{"nome":"VAGUEIMAR"}},{"type":"Feature","geometry":{"type":"Point","coordinates":[-8.74710350057437,40.6419990007796]},"properties":{"nome":"WELCOME BARRA AP"}},{"type":"Feature","geometry":{"type":"Point","coordinates":[-8.65479066185432,40.6426114856865]},"properties":{"nome":"AVEIRO'S DOCK APARTMENTS G"}},{"type":"Feature","geometry":{"type":"Point","coordinates":[-8.65479066185432,40.6426114856865]},"properties":{"nome":"AVEIRO'S DOCK  APARTMENTS "}},{"type":"Feature","geometry":{"type":"Point","coordinates":[-8.76992849987947,40.5611010008928]},"properties":{"nome":"P\u00e1ra-Raios"}},{"type":"Feature","geometry":{"type":"Point","coordinates":[-8.63807722392225,40.6382760005018]},"properties":{"nome":"MIRADOR"}},{"type":"Feature","geometry":{"type":"Point","coordinates":[-8.67323983984966,40.8727013896531]},"properties":{"nome":"Casas da Praia"}},{"type":"Feature","geometry":{"type":"Point","coordinates":[-8.66522599974276,40.872498001536]},"properties":{"nome":"PINE BEACH RESIDENCES"}},{"type":"Feature","geometry":{"type":"Point","coordinates":[-8.66522599974276,40.872498001536]},"properties":{"nome":"PINE BEACH RESIDENCES"}},{"type":"Feature","geometry":{"type":"Point","coordinates":[-8.65470160197871,40.8436033041069]},"properties":{"nome":"Moradia"}},{"type":"Feature","geometry":{"type":"Point","coordinates":[-8.69876570310823,40.764544220241]},"properties":{"nome":"BW AL Torreira"}},{"type":"Feature","geometry":{"type":"Point","coordinates":[-8.66142284903679,40.8671117614471]},"properties":{"nome":"Casa da Praia"}},{"type":"Feature","geometry":{"type":"Point","coordinates":[-8.70654049972141,40.7180220009916]},"properties":{"nome":"Beach House Babylon"}},{"type":"Feature","geometry":{"type":"Point","coordinates":[-8.76831199949201,40.560612000926]},"properties":{"nome":"IBEROVAGUEIRA"}},{"type":"Feature","geometry":{"type":"Point","coordinates":[-8.70072892894085,40.7607352387981]},"properties":{"nome":"Casa da Beira Ria "}},{"type":"Feature","geometry":{"type":"Point","coordinates":[-8.62377582630847,40.8596068727296]},"properties":{"nome":"Aqua Charm Apartements"}},{"type":"Feature","geometry":{"type":"Point","coordinates":[-8.65400750070812,40.6383540010415]},"properties":{"nome":"Resid\u00eancia Blue"}},{"type":"Feature","geometry":{"type":"Point","coordinates":[-8.63981792178765,40.6457264112429]},"properties":{"nome":"Casa da Esta\u00e7\u00e3o "}},{"type":"Feature","geometry":{"type":"Point","coordinates":[-8.75105100066503,40.6155150003142]},"properties":{"nome":"CASA DO BICO"}},{"type":"Feature","geometry":{"type":"Point","coordinates":[-8.65525399940313,40.6415760011642]},"properties":{"nome":"River House Hostel - Aveiro"}},{"type":"Feature","geometry":{"type":"Point","coordinates":[-8.64397154571014,40.642962431542]},"properties":{"nome":"Les Canaux"}},{"type":"Feature","geometry":{"type":"Point","coordinates":[-8.65756249990173,40.6392630010566]},"properties":{"nome":"Home Sweet Home Ria de Aveiro"}},{"type":"Feature","geometry":{"type":"Point","coordinates":[-8.67444799665172,40.8717370677113]},"properties":{"nome":"Nature & Sea, Guest House"}},{"type":"Feature","geometry":{"type":"Point","coordinates":[-8.74983257971258,40.6152827165785]},"properties":{"nome":"M"}},{"type":"Feature","geometry":{"type":"Point","coordinates":[-8.7402245030642,40.638731564629]},"properties":{"nome":"CASA DA BARRA"}},{"type":"Feature","geometry":{"type":"Point","coordinates":[-8.75075733241551,40.6140193208014]},"properties":{"nome":"PALHEIRO DA BELA VISTA"}},{"type":"Feature","geometry":{"type":"Point","coordinates":[-8.75110949985465,40.616973000472]},"properties":{"nome":"Casa T\u00edpica Costa Nova"}},{"type":"Feature","geometry":{"type":"Point","coordinates":[-8.67603149922383,40.8749624234414]},"properties":{"nome":"Ocean Breeze"}},{"type":"Feature","geometry":{"type":"Point","coordinates":[-8.70199152185245,40.7606868689183]},"properties":{"nome":"Mikes Beach Apartment"}},{"type":"Feature","geometry":{"type":"Point","coordinates":[-8.64887300003871,40.6484250004437]},"properties":{"nome":"Maison Bleue"}},{"type":"Feature","geometry":{"type":"Point","coordinates":[-8.70036215309854,40.7612827832739]},"properties":{"nome":"Jo\u00e3o Ant\u00f3nio Pereira Migueis Sardo"}},{"type":"Feature","geometry":{"type":"Point","coordinates":[-8.65782107995626,40.639957156605]},"properties":{"nome":"CASA DO SAL TERRACE"}},{"type":"Feature","geometry":{"type":"Point","coordinates":[-8.75285899941321,40.5840750004532]},"properties":{"nome":"Quinta de S. Miguel"}},{"type":"Feature","geometry":{"type":"Point","coordinates":[-8.7598028265408,40.5612667365255]},"properties":{"nome":"Casa Carmo"}},{"type":"Feature","geometry":{"type":"Point","coordinates":[-8.70654049972141,40.7180220009916]},"properties":{"nome":"CASA DOS AMIGOS"}},{"type":"Feature","geometry":{"type":"Point","coordinates":[-8.66522599974276,40.872498001536]},"properties":{"nome":"SUSANA A. MENDON\u00c7A SANTOS"}},{"type":"Feature","geometry":{"type":"Point","coordinates":[-8.65152785677487,40.6425190102357]},"properties":{"nome":"Bird's House"}},{"type":"Feature","geometry":{"type":"Point","coordinates":[-8.76553549918826,40.5630510004971]},"properties":{"nome":" Vagueira Surf Camp"}},{"type":"Feature","geometry":{"type":"Point","coordinates":[-8.75986999986279,40.5615660007382]},"properties":{"nome":"Suzanne Sim\u00f5es dos Santos"}},{"type":"Feature","geometry":{"type":"Point","coordinates":[-8.64922098851516,40.6425384489858]},"properties":{"nome":"Aveiro Panoramic"}},{"type":"Feature","geometry":{"type":"Point","coordinates":[-8.64357924873062,40.6436809873972]},"properties":{"nome":"AVEIRO HOME"}},{"type":"Feature","geometry":{"type":"Point","coordinates":[-8.70103699987934,40.762428000479]},"properties":{"nome":"Entre a Ria e o Mar"}},{"type":"Feature","geometry":{"type":"Point","coordinates":[-8.75215350031831,40.618197000744]},"properties":{"nome":"CASA DO BARQUINHO"}},{"type":"Feature","geometry":{"type":"Point","coordinates":[-8.75227595775951,40.618153839133]},"properties":{"nome":"JUNTO AO MAR E \u00c0 RIA... COSTA NOVA!"}},{"type":"Feature","geometry":{"type":"Point","coordinates":[-8.66860546812982,40.6027222605081]},"properties":{"nome":"GALERA AMIGOS"}},{"type":"Feature","geometry":{"type":"Point","coordinates":[-8.59752477737556,40.8357758255377]},"properties":{"nome":"Port-u-Gral Our House"}},{"type":"Feature","geometry":{"type":"Point","coordinates":[-8.66522599974276,40.872498001536]},"properties":{"nome":"Casa Praia Furadouro"}},{"type":"Feature","geometry":{"type":"Point","coordinates":[-8.74984399999478,40.6105800004897]},"properties":{"nome":"HOUSE WITH LAGOON VIEW"}},{"type":"Feature","geometry":{"type":"Point","coordinates":[-8.74619999931611,40.6345050004425]},"properties":{"nome":"BY THE SEA - 3 BEDROOM"}},{"type":"Feature","geometry":{"type":"Point","coordinates":[-8.6527571599187,40.6392104085939]},"properties":{"nome":"RETRO APARTMENT"}},{"type":"Feature","geometry":{"type":"Point","coordinates":[-8.56382109553815,40.6257788686745]},"properties":{"nome":"Aveiro Central It\u00b4s ALL There"}},{"type":"Feature","geometry":{"type":"Point","coordinates":[-8.66939250370983,40.8198823566202]},"properties":{"nome":"Ria Surf House"}},{"type":"Feature","geometry":{"type":"Point","coordinates":[-8.53190289707459,40.6698704452049]},"properties":{"nome":"Casa do Chafariz do Font\u00e3o"}},{"type":"Feature","geometry":{"type":"Point","coordinates":[-8.67290128098878,40.8725763642388]},"properties":{"nome":"Furadouro Surf Camp"}},{"type":"Feature","geometry":{"type":"Point","coordinates":[-8.65392398882776,40.621709969031]},"properties":{"nome":"Casa Amarela"}},{"type":"Feature","geometry":{"type":"Point","coordinates":[-8.70654049972141,40.7180220009916]},"properties":{"nome":"AtticoTorreira"}},{"type":"Feature","geometry":{"type":"Point","coordinates":[-8.64474649984788,40.863147001492]},"properties":{"nome":"Apartamento do Furadouro"}},{"type":"Feature","geometry":{"type":"Point","coordinates":[-8.65031361209015,40.6455195233615]},"properties":{"nome":"Flat4you Aveiro"}},{"type":"Feature","geometry":{"type":"Point","coordinates":[-8.65323182162999,40.6419264160157]},"properties":{"nome":"SMART LIVING"}},{"type":"Feature","geometry":{"type":"Point","coordinates":[-8.66522599974276,40.872498001536]},"properties":{"nome":"PINE BEACH RESIDENCES"}},{"type":"Feature","geometry":{"type":"Point","coordinates":[-8.75253661292237,40.6175738174185]},"properties":{"nome":"VASCO DANIEL PINTO DIOGO"}},{"type":"Feature","geometry":{"type":"Point","coordinates":[-8.74320299944105,40.6401300014615]},"properties":{"nome":"CASA DO PINHAL"}},{"type":"Feature","geometry":{"type":"Point","coordinates":[-8.65395349938314,40.6441140009076]},"properties":{"nome":"casa clara"}},{"type":"Feature","geometry":{"type":"Point","coordinates":[-8.49848630242894,40.6269463181324]},"properties":{"nome":"Quinta"}},{"type":"Feature","geometry":{"type":"Point","coordinates":[-8.67475711053424,40.874188883034]},"properties":{"nome":"Casa 1"}},{"type":"Feature","geometry":{"type":"Point","coordinates":[-8.65782107995626,40.639957156605]},"properties":{"nome":"CASA do SAL PREMIUM"}},{"type":"Feature","geometry":{"type":"Point","coordinates":[-8.65756249990173,40.6392630010566]},"properties":{"nome":"FEELTHELAND RIA RESIDENCE"}},{"type":"Feature","geometry":{"type":"Point","coordinates":[-8.62655913404543,40.6601875117455]},"properties":{"nome":"Casa 3 Am\u00e9lias"}},{"type":"Feature","geometry":{"type":"Point","coordinates":[-8.62494191051417,40.8610225113125]},"properties":{"nome":"At Art\u00b4s Home - Restful Guest House"}},{"type":"Feature","geometry":{"type":"Point","coordinates":[-8.63954664135161,40.6463160395156]},"properties":{"nome":"Casa da Esta\u00e7\u00e3o"}},{"type":"Feature","geometry":{"type":"Point","coordinates":[-8.74402649943504,40.6403100011882]},"properties":{"nome":"CASA GOMES"}},{"type":"Feature","geometry":{"type":"Point","coordinates":[-8.75215350031831,40.618197000744]},"properties":{"nome":"Capuchinho"}},{"type":"Feature","geometry":{"type":"Point","coordinates":[-8.65722562268701,40.6431384422614]},"properties":{"nome":"Cozi Apartment in Aveiro Center"}},{"type":"Feature","geometry":{"type":"Point","coordinates":[-8.64791337832971,40.6448843369633]},"properties":{"nome":"Edif\u00edcio Pompeu Figueiredo"}},{"type":"Feature","geometry":{"type":"Point","coordinates":[-8.67757491627306,40.8700215892366]},"properties":{"nome":"Barramares"}},{"type":"Feature","geometry":{"type":"Point","coordinates":[-8.65096544672831,40.6433868905855]},"properties":{"nome":"Green House"}},{"type":"Feature","geometry":{"type":"Point","coordinates":[-8.64756031976178,40.6360754308783]},"properties":{"nome":"LOJA S\u00c3O MARTINHO 21"}},{"type":"Feature","geometry":{"type":"Point","coordinates":[-8.6361988897823,40.6369549032599]},"properties":{"nome":"Casa Mirador"}},{"type":"Feature","geometry":{"type":"Point","coordinates":[-8.74714949970681,40.6422450015083]},"properties":{"nome":"GOLFINHO BARRA"}},{"type":"Feature","geometry":{"type":"Point","coordinates":[-8.67496047024993,40.8728874285159]},"properties":{"nome":"Moradia Avenida"}},{"type":"Feature","geometry":{"type":"Point","coordinates":[-8.63362182355646,40.6494085753503]},"properties":{"nome":"Casa da Torre"}},{"type":"Feature","geometry":{"type":"Point","coordinates":[-8.65762327901551,40.6427490010009]},"properties":{"nome":"AZULEIXO"}},{"type":"Feature","geometry":{"type":"Point","coordinates":[-8.63533833518114,40.6644899412918]},"properties":{"nome":"No campo, junto \u00e0 cidade e praia"}},{"type":"Feature","geometry":{"type":"Point","coordinates":[-8.53254624532827,40.6692073743678]},"properties":{"nome":"Quinta das \u00c1guias"}},{"type":"Feature","geometry":{"type":"Point","coordinates":[-8.64167533596125,40.6438728070156]},"properties":{"nome":"Aveiro White"}},{"type":"Feature","geometry":{"type":"Point","coordinates":[-8.70103615636127,40.7602487445818]},"properties":{"nome":"Mikes River Apartment"}},{"type":"Feature","geometry":{"type":"Point","coordinates":[-8.67691879577269,40.8698042073659]},"properties":{"nome":"Barramares"}},{"type":"Feature","geometry":{"type":"Point","coordinates":[-8.71323261261819,40.7601005970211]},"properties":{"nome":"Casa  Torreira Mar"}},{"type":"Feature","geometry":{"type":"Point","coordinates":[-8.74383040170012,40.640670650843]},"properties":{"nome":"Casa Dunas - Barra"}},{"type":"Feature","geometry":{"type":"Point","coordinates":[-8.6995450553976,40.7625088862953]},"properties":{"nome":"Cais 38"}},{"type":"Feature","geometry":{"type":"Point","coordinates":[-8.65604206535074,40.6408125865562]},"properties":{"nome":"Guest House Menina da Ria"}},{"type":"Feature","geometry":{"type":"Point","coordinates":[-8.67114766804455,40.8696276674128]},"properties":{"nome":"Casa Os Tr\u00eas Manos"}},{"type":"Feature","geometry":{"type":"Point","coordinates":[-8.70327074886821,40.7586314301755]},"properties":{"nome":"Casa da Ria"}},{"type":"Feature","geometry":{"type":"Point","coordinates":[-8.65782107995626,40.639957156605]},"properties":{"nome":"CASA DO SAL"}},{"type":"Feature","geometry":{"type":"Point","coordinates":[-8.75122099964605,40.6155120006066]},"properties":{"nome":"COSTA NOVA MARINA"}},{"type":"Feature","geometry":{"type":"Point","coordinates":[-8.74409717528835,40.6362669192349]},"properties":{"nome":"Barra Lounge"}},{"type":"Feature","geometry":{"type":"Point","coordinates":[-8.71147757494589,40.7602167168609]},"properties":{"nome":"Jorge Manuel Magalh\u00e3es Mendes"}},{"type":"Feature","geometry":{"type":"Point","coordinates":[-8.66881418090631,40.8741326206153]},"properties":{"nome":"Blue Dreams"}},{"type":"Feature","geometry":{"type":"Point","coordinates":[-8.65113544121774,40.642184169072]},"properties":{"nome":"Casa do Tear"}},{"type":"Feature","geometry":{"type":"Point","coordinates":[-8.65805816691931,40.6426106554611]},"properties":{"nome":"Aveiro Ria View"}},{"type":"Feature","geometry":{"type":"Point","coordinates":[-8.74707749973678,40.6387890007281]},"properties":{"nome":"Dune House Beach"}},{"type":"Feature","geometry":{"type":"Point","coordinates":[-8.74975500030634,40.6100970012935]},"properties":{"nome":"CASA DAS RISCAS VERDES"}},{"type":"Feature","geometry":{"type":"Point","coordinates":[-8.6722340402435,40.8740887274863]},"properties":{"nome":"Edif\u00edcio Cambra"}},{"type":"Feature","geometry":{"type":"Point","coordinates":[-8.75171150045243,40.6178970004456]},"properties":{"nome":"The Aparment"}},{"type":"Feature","geometry":{"type":"Point","coordinates":[-8.64145249987189,40.6455540007436]},"properties":{"nome":"SResende Place"}},{"type":"Feature","geometry":{"type":"Point","coordinates":[-8.75048201405229,40.6156860734366]},"properties":{"nome":"SEA RIA 1"}},{"type":"Feature","geometry":{"type":"Point","coordinates":[-8.75048201405229,40.6156860734366]},"properties":{"nome":"SEA RIA R\/C"}},{"type":"Feature","geometry":{"type":"Point","coordinates":[-8.68266350045507,40.5564900014789]},"properties":{"nome":"Casa da Baga"}},{"type":"Feature","geometry":{"type":"Point","coordinates":[-8.7513705008689,40.6190430010115]},"properties":{"nome":"Casa da praia"}},{"type":"Feature","geometry":{"type":"Point","coordinates":[-8.67431150033922,40.870185001334]},"properties":{"nome":"Furadouro Beach TopFloor"}},{"type":"Feature","geometry":{"type":"Point","coordinates":[-8.74705049997262,40.6371600009959]},"properties":{"nome":"RIBEIRO & LISIECKI"}},{"type":"Feature","geometry":{"type":"Point","coordinates":[-8.65088237861567,40.6397253464142]},"properties":{"nome":"Casa Pirosa 2"}},{"type":"Feature","geometry":{"type":"Point","coordinates":[-8.742747371234,40.6418343731377]},"properties":{"nome":"Sea&River Apartment"}},{"type":"Feature","geometry":{"type":"Point","coordinates":[-8.63953999920841,40.6438170016307]},"properties":{"nome":"Family"}},{"type":"Feature","geometry":{"type":"Point","coordinates":[-8.64561621456998,40.645461950599]},"properties":{"nome":"Apartamento com P\u00e1tio"}},{"type":"Feature","geometry":{"type":"Point","coordinates":[-8.74600650040729,40.6360170005749]},"properties":{"nome":"Barra 2018"}},{"type":"Feature","geometry":{"type":"Point","coordinates":[-8.67384856523564,40.873927180768]},"properties":{"nome":"Hordebise Robert"}},{"type":"Feature","geometry":{"type":"Point","coordinates":[-8.74651050019745,40.6415340005002]},"properties":{"nome":"Casa dos Far\u00f3is"}},{"type":"Feature","geometry":{"type":"Point","coordinates":[-8.64624327007933,40.6424864507596]},"properties":{"nome":"Aveiro Ria e Fado"}},{"type":"Feature","geometry":{"type":"Point","coordinates":[-8.70263980365365,40.7600863515618]},"properties":{"nome":"Casa de Praia"}},{"type":"Feature","geometry":{"type":"Point","coordinates":[-8.64961938415714,40.6394429997129]},"properties":{"nome":"Aveiro Centrum"}},{"type":"Feature","geometry":{"type":"Point","coordinates":[-8.75101949944299,40.617855001251]},"properties":{"nome":"Nadais"}},{"type":"Feature","geometry":{"type":"Point","coordinates":[-8.67323745122935,40.8718112075269]},"properties":{"nome":"Atlantic Furadouro Apartment"}},{"type":"Feature","geometry":{"type":"Point","coordinates":[-8.65596489288132,40.6418622596238]},"properties":{"nome":"Casa do Rossio"}},{"type":"Feature","geometry":{"type":"Point","coordinates":[-8.65498777558382,40.6409970083286]},"properties":{"nome":"RIAD'AVEIRO Ap"}},{"type":"Feature","geometry":{"type":"Point","coordinates":[-8.6500710049797,40.6368836307153]},"properties":{"nome":"Aveiro Photo House"}},{"type":"Feature","geometry":{"type":"Point","coordinates":[-8.55602463515356,40.6801132600014]},"properties":{"nome":"casadaeiraangeja de Fernando Nogueira"}},{"type":"Feature","geometry":{"type":"Point","coordinates":[-8.74347718143544,40.6340026839042]},"properties":{"nome":"WHERRY GREEN GUEST HOUSE"}},{"type":"Feature","geometry":{"type":"Point","coordinates":[-8.6344560287737,40.6603912487906]},"properties":{"nome":"Casa da Balseira"}},{"type":"Feature","geometry":{"type":"Point","coordinates":[-8.65537338819933,40.6403730261651]},"properties":{"nome":"Aveiro 5 Estrelas"}},{"type":"Feature","geometry":{"type":"Point","coordinates":[-8.74974600008549,40.6171800013666]},"properties":{"nome":"casa da"}},{"type":"Feature","geometry":{"type":"Point","coordinates":[-8.64462216852097,40.6282775230324]},"properties":{"nome":"Live' In Glic\u00ednias"}},{"type":"Feature","geometry":{"type":"Point","coordinates":[-8.71602167765781,40.6421232936373]},"properties":{"nome":"Casa da Gafanha"}},{"type":"Feature","geometry":{"type":"Point","coordinates":[-8.67323745122935,40.8718112075269]},"properties":{"nome":"Atlantic Furadouro Apartment\u201d,  "}},{"type":"Feature","geometry":{"type":"Point","coordinates":[-8.65511422154493,40.6441365412208]},"properties":{"nome":"Casa Verde"}},{"type":"Feature","geometry":{"type":"Point","coordinates":[-8.67546864361291,40.8742996083721]},"properties":{"nome":"OceanView by Nine Senses"}},{"type":"Feature","geometry":{"type":"Point","coordinates":[-8.56018342708392,40.6772985811518]},"properties":{"nome":"RETIRO DA RIBEIRA"}},{"type":"Feature","geometry":{"type":"Point","coordinates":[-8.69349083798068,40.7739179983418]},"properties":{"nome":"Casa Santos "}},{"type":"Feature","geometry":{"type":"Point","coordinates":[-8.65061574606292,40.6424190598805]},"properties":{"nome":"Albergue dos Cagareus"}},{"type":"Feature","geometry":{"type":"Point","coordinates":[-8.7445709997698,40.640184000817]},"properties":{"nome":"Casa da Elsa"}},{"type":"Feature","geometry":{"type":"Point","coordinates":[-8.64144603918837,40.6444447093233]},"properties":{"nome":"Stay in Aveiro"}},{"type":"Feature","geometry":{"type":"Point","coordinates":[-8.75093850015044,40.6186830009595]},"properties":{"nome":"Costa Nova Ria\/Mar"}},{"type":"Feature","geometry":{"type":"Point","coordinates":[-8.64209600083914,40.6424760006689]},"properties":{"nome":"P\u00e1teo da Esta\u00e7\u00e3o"}},{"type":"Feature","geometry":{"type":"Point","coordinates":[-8.64057774290609,40.6449450013084]},"properties":{"nome":"Gare do sol"}},{"type":"Feature","geometry":{"type":"Point","coordinates":[-8.65211847392136,40.6428441767419]},"properties":{"nome":"Beira Mar Loft"}},{"type":"Feature","geometry":{"type":"Point","coordinates":[-8.65927249963891,40.6397400007292]},"properties":{"nome":"Salinas View"}},{"type":"Feature","geometry":{"type":"Point","coordinates":[-8.65186549935418,40.6402440007313]},"properties":{"nome":"Ria Charme"}},{"type":"Feature","geometry":{"type":"Point","coordinates":[-8.65186549935418,40.6402440007313]},"properties":{"nome":"Alavarium Forum & Canal"}},{"type":"Feature","geometry":{"type":"Point","coordinates":[-8.64496910956181,40.647006293935]},"properties":{"nome":"Casa Sol&Mar"}},{"type":"Feature","geometry":{"type":"Point","coordinates":[-8.80031525763316,40.4632819178682]},"properties":{"nome":"Edificio Belo Oceano"}},{"type":"Feature","geometry":{"type":"Point","coordinates":[-8.64327924556173,40.7349352262424]},"properties":{"nome":"Casa Galricho"}},{"type":"Feature","geometry":{"type":"Point","coordinates":[-8.70121053642593,40.7618184704766]},"properties":{"nome":"Verde Ria apartamento"}},{"type":"Feature","geometry":{"type":"Point","coordinates":[-8.66489501008645,40.8727167439806]},"properties":{"nome":"FURADOURO BEACH AND CLUB APARTEMENT"}},{"type":"Feature","geometry":{"type":"Point","coordinates":[-8.64125528642938,40.6402802769965]},"properties":{"nome":"Sailorman House"}},{"type":"Feature","geometry":{"type":"Point","coordinates":[-8.63297454068187,40.7418002875552]},"properties":{"nome":"Casa Murtosence-Alojamento Local"}},{"type":"Feature","geometry":{"type":"Point","coordinates":[-8.73949095407454,40.6402829824806]},"properties":{"nome":"MARIE NOELLE DOS SANTOS SUFFIT INDIGO"}},{"type":"Feature","geometry":{"type":"Point","coordinates":[-8.74197450028942,40.5913230010945]},"properties":{"nome":"casa da CRISTINA"}},{"type":"Feature","geometry":{"type":"Point","coordinates":[-8.74919137214425,40.6193816287262]},"properties":{"nome":"BELA MARINA"}},{"type":"Feature","geometry":{"type":"Point","coordinates":[-8.74975500030634,40.6100970012935]},"properties":{"nome":"MIA MEL"}},{"type":"Feature","geometry":{"type":"Point","coordinates":[-8.63677699968507,40.6370310013913]},"properties":{"nome":"Oikos 77"}},{"type":"Feature","geometry":{"type":"Point","coordinates":[-8.65096508560557,40.6413835382909]},"properties":{"nome":"Apartamento Aveiro F\u00f3rum"}},{"type":"Feature","geometry":{"type":"Point","coordinates":[-8.64410898884694,40.6429910993821]},"properties":{"nome":"The Bohemian Place II"}},{"type":"Feature","geometry":{"type":"Point","coordinates":[-8.70191550012492,40.6431270011901]},"properties":{"nome":"Costanova"}},{"type":"Feature","geometry":{"type":"Point","coordinates":[-8.70848449981032,40.7561820008147]},"properties":{"nome":"Casa da Torreira "}},{"type":"Feature","geometry":{"type":"Point","coordinates":[-8.75193091306225,40.6194163725798]},"properties":{"nome":"BEACH HOUSE COSTA NOVA"}},{"type":"Feature","geometry":{"type":"Point","coordinates":[-8.79575707652413,40.4636902308628]},"properties":{"nome":"PALHEIROS DE MIRA"}},{"type":"Feature","geometry":{"type":"Point","coordinates":[-8.76320658986474,40.5617837485321]},"properties":{"nome":"Casinha de Praia"}},{"type":"Feature","geometry":{"type":"Point","coordinates":[-8.76808249969985,40.5630060009471]},"properties":{"nome":"What Apartment"}},{"type":"Feature","geometry":{"type":"Point","coordinates":[-8.78376949923207,40.480656000442]},"properties":{"nome":"Casa da Mata"}},{"type":"Feature","geometry":{"type":"Point","coordinates":[-8.62849360390749,40.6748743428287]},"properties":{"nome":"A CASA DA TI LAURA 2"}},{"type":"Feature","geometry":{"type":"Point","coordinates":[-8.65937354932858,40.6394430610626]},"properties":{"nome":"Aveiro Rossio View II"}},{"type":"Feature","geometry":{"type":"Point","coordinates":[-8.65564934077314,40.6388858358423]},"properties":{"nome":"BRUNNA'S"}},{"type":"Feature","geometry":{"type":"Point","coordinates":[-8.63282251429475,40.7418614558586]},"properties":{"nome":"Casa da Linda -Alojamento Local"}},{"type":"Feature","geometry":{"type":"Point","coordinates":[-8.63196661027182,40.6568727244949]},"properties":{"nome":"Casa dos Passadi\u00e7os da Ria"}},{"type":"Feature","geometry":{"type":"Point","coordinates":[-8.70530014011307,40.7591624307924]},"properties":{"nome":"Guindais Torreira Beach"}},{"type":"Feature","geometry":{"type":"Point","coordinates":[-8.6425369999818,40.6451940004597]},"properties":{"nome":"Aveiro Central Flat with sunny private terrace"}},{"type":"Feature","geometry":{"type":"Point","coordinates":[-8.65764927266659,40.6426629405564]},"properties":{"nome":"RIA 43"}},{"type":"Feature","geometry":{"type":"Point","coordinates":[-8.48565799994728,40.5043080006731]},"properties":{"nome":"VALE DO MOURO"}},{"type":"Feature","geometry":{"type":"Point","coordinates":[-8.75008799949395,40.6124100010603]},"properties":{"nome":"BEACH HOUSE WITH LAGOON VIEW"}},{"type":"Feature","geometry":{"type":"Point","coordinates":[-8.74073700001864,40.6416690007391]},"properties":{"nome":"Bright Pointe 2 Bedrooms Appartment"}},{"type":"Feature","geometry":{"type":"Point","coordinates":[-8.65762327901551,40.6427490010009]},"properties":{"nome":"Apartamento Hist\u00f3rico da Ria"}},{"type":"Feature","geometry":{"type":"Point","coordinates":[-8.65623804540637,40.6431223429662]},"properties":{"nome":"Flamengo Apartments"}},{"type":"Feature","geometry":{"type":"Point","coordinates":[-8.67020300059006,40.8687720007341]},"properties":{"nome":"Espa\u00e7o Tranquilo entre o Mar e a Ria"}},{"type":"Feature","geometry":{"type":"Point","coordinates":[-8.65605050053125,40.6432770007369]},"properties":{"nome":"Cais dos Mercant\u00e9is City House"}},{"type":"Feature","geometry":{"type":"Point","coordinates":[-8.65675398201003,40.6428878356623]},"properties":{"nome":"Casinha do Rossio"}},{"type":"Feature","geometry":{"type":"Point","coordinates":[-8.74150649958595,40.6413000008934]},"properties":{"nome":"APARTAMENTO DO FAROL"}},{"type":"Feature","geometry":{"type":"Point","coordinates":[-8.71212732100103,40.7610105166878]},"properties":{"nome":"Torreira - Yellow Beach Pavillion"}},{"type":"Feature","geometry":{"type":"Point","coordinates":[-8.67415861336608,40.8713250482891]},"properties":{"nome":"Casa da Praia - Furadouro"}},{"type":"Feature","geometry":{"type":"Point","coordinates":[-8.71263353154508,40.7601826709752]},"properties":{"nome":"Praia da Torreira \u00e0 Vista"}},{"type":"Feature","geometry":{"type":"Point","coordinates":[-8.67684949074852,40.8726757198505]},"properties":{"nome":"Marias Hostel & Surf"}},{"type":"Feature","geometry":{"type":"Point","coordinates":[-8.70681599954431,40.6422180006247]},"properties":{"nome":"RIBEIRO'S HOUSE"}},{"type":"Feature","geometry":{"type":"Point","coordinates":[-8.64208250005873,40.6424850002482]},"properties":{"nome":"SEA AND SUN 4 YOU"}},{"type":"Feature","geometry":{"type":"Point","coordinates":[-8.65387349991552,40.6425544898016]},"properties":{"nome":"AVEIRO2STAY"}},{"type":"Feature","geometry":{"type":"Point","coordinates":[-8.65362359578999,40.6401341711474]},"properties":{"nome":"Family House"}},{"type":"Feature","geometry":{"type":"Point","coordinates":[-8.64947157176703,40.6381813601791]},"properties":{"nome":"Buddies in Aveiro"}},{"type":"Feature","geometry":{"type":"Point","coordinates":[-8.64947157176703,40.6381813601791]},"properties":{"nome":"Buddies in Aveiro 2"}},{"type":"Feature","geometry":{"type":"Point","coordinates":[-8.64947157176703,40.6381813601791]},"properties":{"nome":"Buddies in Aveiro 3"}},{"type":"Feature","geometry":{"type":"Point","coordinates":[-8.65659746045323,40.6430056002959]},"properties":{"nome":"Brave Wave"}},{"type":"Feature","geometry":{"type":"Point","coordinates":[-8.64948827324477,40.637592336272]},"properties":{"nome":"Tales Of Us - Terrace"}},{"type":"Feature","geometry":{"type":"Point","coordinates":[-8.74131199995389,40.6429350015238]},"properties":{"nome":"BOHEMIA BEACH HOUSE"}},{"type":"Feature","geometry":{"type":"Point","coordinates":[-8.68749102253742,40.5697723851731]},"properties":{"nome":"Ref\u00fagio da Ria"}},{"type":"Feature","geometry":{"type":"Point","coordinates":[-8.64214549980794,40.7535720014695]},"properties":{"nome":"Anita  House"}},{"type":"Feature","geometry":{"type":"Point","coordinates":[-8.73211500046439,40.6030770007779]},"properties":{"nome":"Vivenda Tom\u00e9 Tavares"}},{"type":"Feature","geometry":{"type":"Point","coordinates":[-8.75204099980368,40.6190340003179]},"properties":{"nome":"MAR\u00c9 ALTA"}},{"type":"Feature","geometry":{"type":"Point","coordinates":[-8.52256129397715,40.617180660072]},"properties":{"nome":"Terreno das Mimosas"}},{"type":"Feature","geometry":{"type":"Point","coordinates":[-8.66554996457356,40.8459687186991]},"properties":{"nome":"Casa dos Av\u00f3s"}},{"type":"Feature","geometry":{"type":"Point","coordinates":[-8.65435584851071,40.6431530263014]},"properties":{"nome":"Casa Dos Arcos"}},{"type":"Feature","geometry":{"type":"Point","coordinates":[-8.64357924873062,40.6436809873972]},"properties":{"nome":"THE STATION INN"}},{"type":"Feature","geometry":{"type":"Point","coordinates":[-8.75133900054514,40.61761200096]},"properties":{"nome":"Salinas Beach House - Costa Nova"}},{"type":"Feature","geometry":{"type":"Point","coordinates":[-8.64067870186595,40.641296143473]},"properties":{"nome":"White Family"}},{"type":"Feature","geometry":{"type":"Point","coordinates":[-8.65333475149354,40.6440355510976]},"properties":{"nome":"YELLOW TILED HOUSE : HOME & GALLERY"}},{"type":"Feature","geometry":{"type":"Point","coordinates":[-8.64624327007933,40.6424864507596]},"properties":{"nome":"Sailing Apartment Aveiro"}},{"type":"Feature","geometry":{"type":"Point","coordinates":[-8.64682099999476,40.6289580006061]},"properties":{"nome":"YELLOW"}},{"type":"Feature","geometry":{"type":"Point","coordinates":[-8.76662899951898,40.5614310010499]},"properties":{"nome":"RIAMAR VISTAS"}},{"type":"Feature","geometry":{"type":"Point","coordinates":[-8.65481483821353,40.6425544904832]},"properties":{"nome":"BOHEMIA HOUSE"}},{"type":"Feature","geometry":{"type":"Point","coordinates":[-8.65248613280758,40.6429100164905]},"properties":{"nome":"Casa Irene"}},{"type":"Feature","geometry":{"type":"Point","coordinates":[-8.52698386630921,40.6000887530257]},"properties":{"nome":"Casa do Sol Nascente"}},{"type":"Feature","geometry":{"type":"Point","coordinates":[-8.75214190755957,40.6166699827474]},"properties":{"nome":"ALMEIDA HOUSE"}},{"type":"Feature","geometry":{"type":"Point","coordinates":[-8.65558059450106,40.6436292790679]},"properties":{"nome":"Casa Muxima"}},{"type":"Feature","geometry":{"type":"Point","coordinates":[-8.65552947407321,40.6436859011893]},"properties":{"nome":"Casa Mussulo"}},{"type":"Feature","geometry":{"type":"Point","coordinates":[-8.64508397264561,40.6439732943522]},"properties":{"nome":"Von Haff Gallery - City Centre"}},{"type":"Feature","geometry":{"type":"Point","coordinates":[-8.75063745493581,40.6147971273699]},"properties":{"nome":"O Palheiro do Ti'Xis"}},{"type":"Feature","geometry":{"type":"Point","coordinates":[-8.7432839996319,40.6402290002466]},"properties":{"nome":"OceanSide Barra Beach"}},{"type":"Feature","geometry":{"type":"Point","coordinates":[-8.75200499981867,40.6182240011139]},"properties":{"nome":"ONE OF THE BEST VIEWS OF COSTA NOVA 2"}},{"type":"Feature","geometry":{"type":"Point","coordinates":[-8.64082412833066,40.7871630087928]},"properties":{"nome":"Casa da Ria"}},{"type":"Feature","geometry":{"type":"Point","coordinates":[-8.65330720645198,40.6428259875047]},"properties":{"nome":"Feel Aveiro"}},{"type":"Feature","geometry":{"type":"Point","coordinates":[-8.70080768334349,40.7606792277696]},"properties":{"nome":"\"Casa do Cais da Torreira\""}},{"type":"Feature","geometry":{"type":"Point","coordinates":[-8.75191049974574,40.608036001277]},"properties":{"nome":"CASA DO MAR"}},{"type":"Feature","geometry":{"type":"Point","coordinates":[-8.74651049929912,40.6345680015862]},"properties":{"nome":"Ria do Sal Praia"}},{"type":"Feature","geometry":{"type":"Point","coordinates":[-8.65254473889672,40.6435855163446]},"properties":{"nome":"COXIM"}},{"type":"Feature","geometry":{"type":"Point","coordinates":[-8.64231421509641,40.860971141581]},"properties":{"nome":"Casa Couto - Cova do Frade"}},{"type":"Feature","geometry":{"type":"Point","coordinates":[-8.65805816691931,40.6426106554611]},"properties":{"nome":"Augusto Domingues Neto"}},{"type":"Feature","geometry":{"type":"Point","coordinates":[-8.64209600083914,40.6424760006689]},"properties":{"nome":"Aveiro 5 ESTRELAS PALACE"}},{"type":"Feature","geometry":{"type":"Point","coordinates":[-8.65537338819933,40.6403730261651]},"properties":{"nome":"Domus da Ria"}},{"type":"Feature","geometry":{"type":"Point","coordinates":[-8.62932262225228,40.6791952638888]},"properties":{"nome":"Casa das Tr\u00eas \u00c1guias"}},{"type":"Feature","geometry":{"type":"Point","coordinates":[-8.61695965966423,40.6544730902628]},"properties":{"nome":"Bird\u00b4s Home"}},{"type":"Feature","geometry":{"type":"Point","coordinates":[-8.74131199995389,40.6429350015238]},"properties":{"nome":"Matilde Sousa Sucena"}},{"type":"Feature","geometry":{"type":"Point","coordinates":[-8.65387349991552,40.6425544898016]},"properties":{"nome":"AVEIRO2STAY"}},{"type":"Feature","geometry":{"type":"Point","coordinates":[-8.65239024214258,40.6427803620462]},"properties":{"nome":"Casa dos Anjos"}},{"type":"Feature","geometry":{"type":"Point","coordinates":[-8.6560190002075,40.6432950010416]},"properties":{"nome":"Casa dos Mercant\u00e9is"}},{"type":"Feature","geometry":{"type":"Point","coordinates":[-8.75063745493581,40.6147971273699]},"properties":{"nome":"O Palheiro do Ti'Xis II"}},{"type":"Feature","geometry":{"type":"Point","coordinates":[-8.67684949074852,40.8726757198505]},"properties":{"nome":"Marias House"}},{"type":"Feature","geometry":{"type":"Point","coordinates":[-8.6420222195099,40.6437766355339]},"properties":{"nome":"Aveiro Train Guesthouse"}},{"type":"Feature","geometry":{"type":"Point","coordinates":[-8.66640902886967,40.7584792289992]},"properties":{"nome":"\"Ria de Aveiro- Pink House\""}},{"type":"Feature","geometry":{"type":"Point","coordinates":[-8.6480217870182,40.6348393211237]},"properties":{"nome":"YOUR ROOM BAIRRO DO LICEU"}},{"type":"Feature","geometry":{"type":"Point","coordinates":[-8.6749311627138,40.874298696128]},"properties":{"nome":"Casa do Gato Branco"}},{"type":"Feature","geometry":{"type":"Point","coordinates":[-8.7491867961262,40.6193997050239]},"properties":{"nome":"COSTA NOVA 118"}},{"type":"Feature","geometry":{"type":"Point","coordinates":[-8.75133900054514,40.6176210004814]},"properties":{"nome":"Entre a Ria e o Mar"}},{"type":"Feature","geometry":{"type":"Point","coordinates":[-8.65288812081238,40.6436514841879]},"properties":{"nome":"ART HOUSE N.20"}},{"type":"Feature","geometry":{"type":"Point","coordinates":[-8.65286014547781,40.6436254585895]},"properties":{"nome":"SISTER ART HOUSE N.20"}},{"type":"Feature","geometry":{"type":"Point","coordinates":[-8.64336272150951,40.7496375886017]},"properties":{"nome":"Retiro da Atafona Casa Branca"}},{"type":"Feature","geometry":{"type":"Point","coordinates":[-8.65354003719721,40.6407600184904]},"properties":{"nome":"CPPB A6"}},{"type":"Feature","geometry":{"type":"Point","coordinates":[-8.7397639997001,40.6391820008894]},"properties":{"nome":"My little beach house"}},{"type":"Feature","geometry":{"type":"Point","coordinates":[-8.74527750048623,40.6418400007407]},"properties":{"nome":"CASA DO BONAS BEACH HOUSE"}},{"type":"Feature","geometry":{"type":"Point","coordinates":[-8.70625975643219,40.7585241424643]},"properties":{"nome":"Swim&Beach Condominio Torreira"}},{"type":"Feature","geometry":{"type":"Point","coordinates":[-8.64586912805169,40.7348860929216]},"properties":{"nome":"Casa da Balsa"}},{"type":"Feature","geometry":{"type":"Point","coordinates":[-8.6425369999818,40.6451940004597]},"properties":{"nome":"Aveiro Centro Grande Suite"}},{"type":"Feature","geometry":{"type":"Point","coordinates":[-8.52161150971883,40.570025129641]},"properties":{"nome":"Casa da Lagoa Pateira"}},{"type":"Feature","geometry":{"type":"Point","coordinates":[-8.74765468078155,40.6432923195363]},"properties":{"nome":"Casa da Beira Mar"}},{"type":"Feature","geometry":{"type":"Point","coordinates":[-8.64472600029309,40.643280839639]},"properties":{"nome":"Urban Suites"}},{"type":"Feature","geometry":{"type":"Point","coordinates":[-8.65672424777414,40.6428962803415]},"properties":{"nome":"Casinha do Rossio 2"}},{"type":"Feature","geometry":{"type":"Point","coordinates":[-8.74071110158899,40.5816322260298]},"properties":{"nome":"QUINTA DO MARNOTO"}},{"type":"Feature","geometry":{"type":"Point","coordinates":[-8.6667614999394,40.5975870007618]},"properties":{"nome":"BECO'S HOUSE"}},{"type":"Feature","geometry":{"type":"Point","coordinates":[-8.65344320779274,40.6424328486132]},"properties":{"nome":"Neptuno Boutique Apartment"}},{"type":"Feature","geometry":{"type":"Point","coordinates":[-8.65344320779274,40.6424328486132]},"properties":{"nome":"Apartamento Moliceiro"}},{"type":"Feature","geometry":{"type":"Point","coordinates":[-8.65344320779274,40.6424328486132]},"properties":{"nome":"Apartamento Salinas"}},{"type":"Feature","geometry":{"type":"Point","coordinates":[-8.59155320226985,40.640123780674]},"properties":{"nome":"Aveiro cozy apartment "}},{"type":"Feature","geometry":{"type":"Point","coordinates":[-8.75006999995061,40.6128330013265]},"properties":{"nome":"Captain Pisco"}},{"type":"Feature","geometry":{"type":"Point","coordinates":[-8.75256838004576,40.6171692254628]},"properties":{"nome":"Casa do Areal"}},{"type":"Feature","geometry":{"type":"Point","coordinates":[-8.6532924668948,40.6419459578656]},"properties":{"nome":"AVEIRO CENTRAL APARTMENT"}},{"type":"Feature","geometry":{"type":"Point","coordinates":[-8.6846174996914,40.6096020007611]},"properties":{"nome":"HAPPY RIA HOUSE"}},{"type":"Feature","geometry":{"type":"Point","coordinates":[-8.64733292112909,40.6365616418518]},"properties":{"nome":"Quatro Anas \"Casa\" Hostel"}},{"type":"Feature","geometry":{"type":"Point","coordinates":[-8.66394052045267,40.8717781569551]},"properties":{"nome":"COZY AND SUNNY APARTMENT"}},{"type":"Feature","geometry":{"type":"Point","coordinates":[-8.65354003719721,40.6407600184904]},"properties":{"nome":"CPPB A7"}},{"type":"Feature","geometry":{"type":"Point","coordinates":[-8.74951731237037,40.610631658035]},"properties":{"nome":"A Salga"}},{"type":"Feature","geometry":{"type":"Point","coordinates":[-8.74951731237037,40.610631658035]},"properties":{"nome":"O Palheiro"}},{"type":"Feature","geometry":{"type":"Point","coordinates":[-8.65344753677409,40.6453518078846]},"properties":{"nome":"Urbana Homes"}},{"type":"Feature","geometry":{"type":"Point","coordinates":[-8.72694000014867,40.6235970014259]},"properties":{"nome":"CASA D'AV\u00d3 T\u00c9"}},{"type":"Feature","geometry":{"type":"Point","coordinates":[-8.74704600031136,40.6374480010052]},"properties":{"nome":"Barra Wave"}},{"type":"Feature","geometry":{"type":"Point","coordinates":[-8.63530688695969,40.6139792987897]},"properties":{"nome":"P\u00e1teo das Leirinhas"}},{"type":"Feature","geometry":{"type":"Point","coordinates":[-8.75063745493581,40.6148061272705]},"properties":{"nome":"O Palheiro do Ti'Xis III"}},{"type":"Feature","geometry":{"type":"Point","coordinates":[-8.74951731237037,40.610631658035]},"properties":{"nome":"A Concha"}},{"type":"Feature","geometry":{"type":"Point","coordinates":[-8.74322044472388,40.6407285487952]},"properties":{"nome":"The Beach Flat"}},{"type":"Feature","geometry":{"type":"Point","coordinates":[-8.53063381024181,40.6701117454413]},"properties":{"nome":"Citrustreehouse"}},{"type":"Feature","geometry":{"type":"Point","coordinates":[-8.63008295451214,40.6741355460332]},"properties":{"nome":"CASA D'OLIVEIRA"}},{"type":"Feature","geometry":{"type":"Point","coordinates":[-8.65345936848469,40.6423850512053]},"properties":{"nome":"Aveiro History Apartments II"}},{"type":"Feature","geometry":{"type":"Point","coordinates":[-8.65345936848469,40.6423850512053]},"properties":{"nome":"Aveiro History Apartments III"}},{"type":"Feature","geometry":{"type":"Point","coordinates":[-8.65345936848469,40.6423850512053]},"properties":{"nome":"Aveiro History Apartments IV"}},{"type":"Feature","geometry":{"type":"Point","coordinates":[-8.65345936848469,40.6423850512053]},"properties":{"nome":"Aveiro History Apartments V"}},{"type":"Feature","geometry":{"type":"Point","coordinates":[-8.65345936848469,40.6423850512053]},"properties":{"nome":"Aveiro History Apartments VI"}},{"type":"Feature","geometry":{"type":"Point","coordinates":[-8.67475276987477,40.8741888130702]},"properties":{"nome":"T1 Vista Mar"}},{"type":"Feature","geometry":{"type":"Point","coordinates":[-8.62343999922433,40.859650001612]},"properties":{"nome":"CASA DA CARLOTA"}},{"type":"Feature","geometry":{"type":"Point","coordinates":[-8.75009046357276,40.6128230300858]},"properties":{"nome":"Family Hostel Costa Nova"}},{"type":"Feature","geometry":{"type":"Point","coordinates":[-8.70514764660203,40.7180099348007]},"properties":{"nome":"CANTO DA RIA"}},{"type":"Feature","geometry":{"type":"Point","coordinates":[-8.63955961571926,40.854759090956]},"properties":{"nome":"Ria Dream"}},{"type":"Feature","geometry":{"type":"Point","coordinates":[-8.65345936848469,40.6423850512053]},"properties":{"nome":"Aveiro History Apartments I"}},{"type":"Feature","geometry":{"type":"Point","coordinates":[-8.64751742880023,40.6361328229072]},"properties":{"nome":"APARTAMENTO MARTINHO"}},{"type":"Feature","geometry":{"type":"Point","coordinates":[-8.65036277059744,40.6388490666547]},"properties":{"nome":"Quatro Anas \"CASA\" Vict\u00f3ria "}},{"type":"Feature","geometry":{"type":"Point","coordinates":[-8.75245961292947,40.5525443648436]},"properties":{"nome":"Hostel Boa-Hora"}},{"type":"Feature","geometry":{"type":"Point","coordinates":[-8.62657199971692,40.6712548507755]},"properties":{"nome":"Casa do Pa\u00e7o 2"}},{"type":"Feature","geometry":{"type":"Point","coordinates":[-8.74989900024636,40.6182780011391]},"properties":{"nome":"Costa Nova Ria View Apartment"}},{"type":"Feature","geometry":{"type":"Point","coordinates":[-8.68623798231052,40.5696427429831]},"properties":{"nome":"Vagos Art.Lab"}},{"type":"Feature","geometry":{"type":"Point","coordinates":[-8.70445487393975,40.637356406635]},"properties":{"nome":"Casa Kurt"}},{"type":"Feature","geometry":{"type":"Point","coordinates":[-8.65666310663926,40.6395586109215]},"properties":{"nome":"Casa Peixinha"}},{"type":"Feature","geometry":{"type":"Point","coordinates":[-8.64733292112909,40.6365616418518]},"properties":{"nome":"Quatro Anas \"Casa\" Betty Blue"}},{"type":"Feature","geometry":{"type":"Point","coordinates":[-8.67018573407199,40.8700053145084]},"properties":{"nome":"Amar\u00e9"}},{"type":"Feature","geometry":{"type":"Point","coordinates":[-8.65344320779274,40.6424328486132]},"properties":{"nome":"Canto da Pra\u00e7a"}},{"type":"Feature","geometry":{"type":"Point","coordinates":[-8.65261401876804,40.6431115160363]},"properties":{"nome":"BLUE SALINAS SUITES"}},{"type":"Feature","geometry":{"type":"Point","coordinates":[-8.72694000014867,40.6235970014259]},"properties":{"nome":"Casa d'av\u00f3 T\u00e9"}},{"type":"Feature","geometry":{"type":"Point","coordinates":[-8.6452457664148,40.6333733052793]},"properties":{"nome":"A minha alegre casinha"}},{"type":"Feature","geometry":{"type":"Point","coordinates":[-8.64868677119547,40.7363578543703]},"properties":{"nome":"Casa do Bico "}},{"type":"Feature","geometry":{"type":"Point","coordinates":[-8.60453450581072,40.6904408188343]},"properties":{"nome":"CASA DO MOR\u00c7AINHO"}},{"type":"Feature","geometry":{"type":"Point","coordinates":[-8.65442044546446,40.6448208452554]},"properties":{"nome":"House by The Canal"}},{"type":"Feature","geometry":{"type":"Point","coordinates":[-8.65505003781618,40.6400499880212]},"properties":{"nome":"Aveiro, Ria e Arte"}},{"type":"Feature","geometry":{"type":"Point","coordinates":[-8.5660006258097,40.7334048514518]},"properties":{"nome":"Casa de Salreu"}},{"type":"Feature","geometry":{"type":"Point","coordinates":[-8.57374695750649,40.5822585608154]},"properties":{"nome":"Casa do Bosque"}},{"type":"Feature","geometry":{"type":"Point","coordinates":[-8.6337310748647,40.6416816226599]},"properties":{"nome":"\"Sal, Terra e Mar\""}},{"type":"Feature","geometry":{"type":"Point","coordinates":[-8.65280997367085,40.6433700177089]},"properties":{"nome":"Cantinho do Mercado"}},{"type":"Feature","geometry":{"type":"Point","coordinates":[-8.64207800039747,40.6424850002482]},"properties":{"nome":"Ria Palace 312"}},{"type":"Feature","geometry":{"type":"Point","coordinates":[-8.6527571599187,40.6392104085939]},"properties":{"nome":"AVEIRO DOWNTOWN APARTMENT"}},{"type":"Feature","geometry":{"type":"Point","coordinates":[-8.64873183428337,40.633682308415]},"properties":{"nome":"Commun'House"}},{"type":"Feature","geometry":{"type":"Point","coordinates":[-8.62893000008262,40.6481984534603]},"properties":{"nome":"Cantinho do Auka"}},{"type":"Feature","geometry":{"type":"Point","coordinates":[-8.65293000835577,40.6422857570624]},"properties":{"nome":"Ficus Benjamina"}},{"type":"Feature","geometry":{"type":"Point","coordinates":[-8.74951731237037,40.610631658035]},"properties":{"nome":"O Desertas"}},{"type":"Feature","geometry":{"type":"Point","coordinates":[-8.64337538685669,40.6424968033756]},"properties":{"nome":"Urban Master"}},{"type":"Feature","geometry":{"type":"Point","coordinates":[-8.60217566192695,40.6895264429167]},"properties":{"nome":"CASA DA ESCOLA"}},{"type":"Feature","geometry":{"type":"Point","coordinates":[-8.65756249990173,40.6392630010566]},"properties":{"nome":"Cantinho do Alboi"}},{"type":"Feature","geometry":{"type":"Point","coordinates":[-8.69481716995497,40.6324240845799]},"properties":{"nome":"CASA DO MOLICEIRO GUESTHOUSE"}},{"type":"Feature","geometry":{"type":"Point","coordinates":[-8.67020300059006,40.8687720007341]},"properties":{"nome":"Other Side"}},{"type":"Feature","geometry":{"type":"Point","coordinates":[-8.65723818921954,40.6377160101893]},"properties":{"nome":"Cantinho da Gl\u00f3ria"}},{"type":"Feature","geometry":{"type":"Point","coordinates":[-8.7470639998547,40.6388970008833]},"properties":{"nome":"CASA PINTO JORGE"}},{"type":"Feature","geometry":{"type":"Point","coordinates":[-8.64733292112909,40.6365616418518]},"properties":{"nome":"Quatro Anas Casa Hostel Tita & Paulo"}},{"type":"Feature","geometry":{"type":"Point","coordinates":[-8.70713606838174,40.7614568281995]},"properties":{"nome":"Mikes Torreira Apartament"}},{"type":"Feature","geometry":{"type":"Point","coordinates":[-8.67113540154935,40.6035384829137]},"properties":{"nome":"Sol d'\u00cclhavo"}},{"type":"Feature","geometry":{"type":"Point","coordinates":[-8.74709615954186,40.6405786764433]},"properties":{"nome":"Ocean View"}},{"type":"Feature","geometry":{"type":"Point","coordinates":[-8.64357998984073,40.6476999831848]},"properties":{"nome":"Casinha"}},{"type":"Feature","geometry":{"type":"Point","coordinates":[-8.64698999915084,40.6430800038258]},"properties":{"nome":"PEIXINHO AVENUE APARTMENT"}},{"type":"Feature","geometry":{"type":"Point","coordinates":[-8.7694910850148,40.5620362024168]},"properties":{"nome":"Terra\u00e7os da Vagueira"}},{"type":"Feature","geometry":{"type":"Point","coordinates":[-8.62621997870317,40.8614800046025]},"properties":{"nome":"Dainty House"}},{"type":"Feature","geometry":{"type":"Point","coordinates":[-8.64744002366714,40.6279499982026]},"properties":{"nome":"8 ROOFTOP"}},{"type":"Feature","geometry":{"type":"Point","coordinates":[-8.67502000519707,40.8744100115572]},"properties":{"nome":"Salty House"}},{"type":"Feature","geometry":{"type":"Point","coordinates":[-8.66471001373179,40.8714799925698]},"properties":{"nome":"Furadouro Pine Beach Villa"}},{"type":"Feature","geometry":{"type":"Point","coordinates":[-8.74001319954645,40.6397686917664]},"properties":{"nome":"The Sweet Ocean"}},{"type":"Feature","geometry":{"type":"Point","coordinates":[-8.6652255838228,40.8725040097405]},"properties":{"nome":"Pine Beach Spot"}},{"type":"Feature","geometry":{"type":"Point","coordinates":[-8.67636999430435,40.8706500163503]},"properties":{"nome":"Furadouro Beach Spot"}},{"type":"Feature","geometry":{"type":"Point","coordinates":[-8.67613999594723,40.8716200118975]},"properties":{"nome":"Fura Loft by Am\u00e9lia"}},{"type":"Feature","geometry":{"type":"Point","coordinates":[-8.65325999908551,40.6438899892192]},"properties":{"nome":"Casa 53"}},{"type":"Feature","geometry":{"type":"Point","coordinates":[-8.6527499599217,40.6405800179321]},"properties":{"nome":"AMARIA"}},{"type":"Feature","geometry":{"type":"Point","coordinates":[-8.65328003061802,40.6439100219398]},"properties":{"nome":"Casa 55"}},{"type":"Feature","geometry":{"type":"Point","coordinates":[-8.67636999430435,40.8706500163503]},"properties":{"nome":"Barramares-inn"}},{"type":"Feature","geometry":{"type":"Point","coordinates":[-8.66850659595642,40.87412402186]},"properties":{"nome":"Casa do Norte"}},{"type":"Feature","geometry":{"type":"Point","coordinates":[-8.6517299660357,40.6391400062174]},"properties":{"nome":"VIC AVEIRO ARTS HOUSE"}},{"type":"Feature","geometry":{"type":"Point","coordinates":[-8.64538997745894,40.6430600131167]},"properties":{"nome":"Gelfa Camping Atividades Tr\u00edstica "}},{"type":"Feature","geometry":{"type":"Point","coordinates":[-8.65523997220995,40.6427699985682]},"properties":{"nome":"Pens\u00e3o Central"}},{"type":"Feature","geometry":{"type":"Point","coordinates":[-8.65424320157072,40.6425455733906]},"properties":{"nome":"Ria 35"}},{"type":"Feature","geometry":{"type":"Point","coordinates":[-8.67626999923681,40.8738099936528]},"properties":{"nome":"Beira Mar Apartment "}},{"type":"Feature","geometry":{"type":"Point","coordinates":[-8.6746995393043,40.8726189731808]},"properties":{"nome":"Mira Mar Apartment"}},{"type":"Feature","geometry":{"type":"Point","coordinates":[-8.74663029233722,40.641547456775]},"properties":{"nome":"CASA DOS FAROIS"}},{"type":"Feature","geometry":{"type":"Point","coordinates":[-8.64795689451871,40.6423866066903]},"properties":{"nome":"Home Sweet Home Aveiro Mercado"}},{"type":"Feature","geometry":{"type":"Point","coordinates":[-8.64151997053626,40.6443199804667]},"properties":{"nome":"SOLDOURO TRAIN SUITES"}},{"type":"Feature","geometry":{"type":"Point","coordinates":[-8.643367407122,40.6425073720669]},"properties":{"nome":"Aveiro - Sweet Nest"}},{"type":"Feature","geometry":{"type":"Point","coordinates":[-8.6527499599217,40.6405800179321]},"properties":{"nome":"NINHO CITADINO"}},{"type":"Feature","geometry":{"type":"Point","coordinates":[-8.64207800039747,40.6424850002482]},"properties":{"nome":"GARE DA FONTE NOVA"}},{"type":"Feature","geometry":{"type":"Point","coordinates":[-8.65332001283466,40.6429999986929]},"properties":{"nome":"Cantinho do Largo"}},{"type":"Feature","geometry":{"type":"Point","coordinates":[-8.646119225315,40.6401298174145]},"properties":{"nome":"APARTAMENT PURO HOMES"}},{"type":"Feature","geometry":{"type":"Point","coordinates":[-8.67415801239316,40.87132924154]},"properties":{"nome":"Casa Mar"}},{"type":"Feature","geometry":{"type":"Point","coordinates":[-8.74697400034133,40.6374480010052]},"properties":{"nome":"CASA DA BARRA"}},{"type":"Feature","geometry":{"type":"Point","coordinates":[-8.74302540071276,40.6353831764595]},"properties":{"nome":"AL Quinta da Barra"}},{"type":"Feature","geometry":{"type":"Point","coordinates":[-8.65541004125954,40.6403900000021]},"properties":{"nome":"Carpe Diem Aveiro Apartment"}},{"type":"Feature","geometry":{"type":"Point","coordinates":[-8.65664997506642,40.6435200119382]},"properties":{"nome":"CAIS DO PESCADOR Frac\u00e7\u00e3o H"}},{"type":"Feature","geometry":{"type":"Point","coordinates":[-8.65664997506642,40.6435200119382]},