{"type":"FeatureCollection","features":[{"type":"Feature","geometry":{"type":"Point","coordinates":[-8.67561036003551,40.8700463321416]},"properties":{"nome":"Cool and Sea Beach House","imgurl":"https:\/\/upload.wikimedia.org\/wikipedia\/commons\/d\/d1\/Image_not_available.png"}},{"type":"Feature","geometry":{"type":"Point","coordinates":[-8.67503600059902,40.8712200009172]},"properties":{"nome":"Manuel Pereira Valente","imgurl":"https:\/\/upload.wikimedia.org\/wikipedia\/commons\/d\/d1\/Image_not_available.png"}},{"type":"Feature","geometry":{"type":"Point","coordinates":[-8.66489501008645,40.8727167439806]},"properties":{"nome":"Pine Beach Residences","imgurl":"https:\/\/upload.wikimedia.org\/wikipedia\/commons\/d\/d1\/Image_not_available.png"}},{"type":"Feature","geometry":{"type":"Point","coordinates":[-8.55656118629638,40.6855397882047]},"properties":{"nome":"Motel Eclipse","imgurl":"https:\/\/upload.wikimedia.org\/wikipedia\/commons\/d\/d1\/Image_not_available.png"}},{"type":"Feature","geometry":{"type":"Point","coordinates":[-8.74989707066513,40.6117300497965]},"properties":{"nome":"PENS\u00c3O JOS\u00c9 DAS HORTAS","imgurl":"https:\/\/upload.wikimedia.org\/wikipedia\/commons\/d\/d1\/Image_not_available.png"}},{"type":"Feature","geometry":{"type":"Point","coordinates":[-8.6756417345951,40.8721462913679]},"properties":{"nome":"Furadouro Terrace Hostel","imgurl":"https:\/\/upload.wikimedia.org\/wikipedia\/commons\/d\/d1\/Image_not_available.png"}},{"type":"Feature","geometry":{"type":"Point","coordinates":[-8.66489501008645,40.8727167439806]},"properties":{"nome":"Pine Beach Residences","imgurl":"https:\/\/upload.wikimedia.org\/wikipedia\/commons\/d\/d1\/Image_not_available.png"}},{"type":"Feature","geometry":{"type":"Point","coordinates":[-8.70855555565096,40.6393333330921]},"properties":{"nome":"RIVERA","imgurl":"https:\/\/upload.wikimedia.org\/wikipedia\/commons\/d\/d1\/Image_not_available.png"}},{"type":"Feature","geometry":{"type":"Point","coordinates":[-8.74703393863203,40.6403107803183]},"properties":{"nome":"CASA DA BARRA","imgurl":"https:\/\/upload.wikimedia.org\/wikipedia\/commons\/d\/d1\/Image_not_available.png"}},{"type":"Feature","geometry":{"type":"Point","coordinates":[-8.69316666743568,40.587416666379]},"properties":{"nome":"VARANDAS DA RIA","imgurl":"https:\/\/upload.wikimedia.org\/wikipedia\/commons\/d\/d1\/Image_not_available.png"}},{"type":"Feature","geometry":{"type":"Point","coordinates":[-8.59441303568924,40.8030422022604]},"properties":{"nome":"Areia do Gonde","imgurl":"https:\/\/upload.wikimedia.org\/wikipedia\/commons\/d\/d1\/Image_not_available.png"}},{"type":"Feature","geometry":{"type":"Point","coordinates":[-8.56304660313448,40.7426611973922]},"properties":{"nome":"Casa do Sino","imgurl":"https:\/\/upload.wikimedia.org\/wikipedia\/commons\/d\/d1\/Image_not_available.png"}},{"type":"Feature","geometry":{"type":"Point","coordinates":[-8.67658249527641,40.8739821181217]},"properties":{"nome":"Furadouro Surf Camp","imgurl":"https:\/\/upload.wikimedia.org\/wikipedia\/commons\/d\/d1\/Image_not_available.png"}},{"type":"Feature","geometry":{"type":"Point","coordinates":[-8.57195271645689,40.7525005361099]},"properties":{"nome":"Residencialmir Unipessoal Lda","imgurl":"https:\/\/upload.wikimedia.org\/wikipedia\/commons\/d\/d1\/Image_not_available.png"}},{"type":"Feature","geometry":{"type":"Point","coordinates":[-8.65358095186514,40.639575548156]},"properties":{"nome":"Yellow Inn Aveiro","imgurl":"https:\/\/upload.wikimedia.org\/wikipedia\/commons\/d\/d1\/Image_not_available.png"}},{"type":"Feature","geometry":{"type":"Point","coordinates":[-8.70789268880282,40.7620264739072]},"properties":{"nome":"Apartamento Torreira","imgurl":"https:\/\/upload.wikimedia.org\/wikipedia\/commons\/d\/d1\/Image_not_available.png"}},{"type":"Feature","geometry":{"type":"Point","coordinates":[-8.6475969377877,40.6429428429575]},"properties":{"nome":"Welcome In Suites e Hostel","imgurl":"https:\/\/upload.wikimedia.org\/wikipedia\/commons\/d\/d1\/Image_not_available.png"}},{"type":"Feature","geometry":{"type":"Point","coordinates":[-8.65523909725088,40.6427472042277]},"properties":{"nome":"Morgan & Jacob's Guesthouse","imgurl":"https:\/\/upload.wikimedia.org\/wikipedia\/commons\/d\/d1\/Image_not_available.png"}},{"type":"Feature","geometry":{"type":"Point","coordinates":[-8.65481877013953,40.6434312975715]},"properties":{"nome":"Aveiro LUZ","imgurl":"https:\/\/upload.wikimedia.org\/wikipedia\/commons\/d\/d1\/Image_not_available.png"}},{"type":"Feature","geometry":{"type":"Point","coordinates":[-8.6506964587929,40.6435144608183]},"properties":{"nome":"Baga de Sal","imgurl":"https:\/\/upload.wikimedia.org\/wikipedia\/commons\/d\/d1\/Image_not_available.png"}},{"type":"Feature","geometry":{"type":"Point","coordinates":[-8.64127572130545,40.6442283205479]},"properties":{"nome":"Tricana de Aveiro Alojamento Local","imgurl":"https:\/\/upload.wikimedia.org\/wikipedia\/commons\/d\/d1\/Image_not_available.png"}},{"type":"Feature","geometry":{"type":"Point","coordinates":[-8.75084606979592,40.6123625033532]},"properties":{"nome":"MARIA ADELAIDE AGUALUSA ROSA SANTOS","imgurl":"https:\/\/upload.wikimedia.org\/wikipedia\/commons\/d\/d1\/Image_not_available.png"}},{"type":"Feature","geometry":{"type":"Point","coordinates":[-8.65741592000018,40.6433246816303]},"properties":{"nome":"City & Ria","imgurl":"https:\/\/upload.wikimedia.org\/wikipedia\/commons\/d\/d1\/Image_not_available.png"}},{"type":"Feature","geometry":{"type":"Point","coordinates":[-8.74730089008669,40.6258022135682]},"properties":{"nome":"CASA BELO HORIZONTE","imgurl":"https:\/\/upload.wikimedia.org\/wikipedia\/commons\/d\/d1\/Image_not_available.png"}},{"type":"Feature","geometry":{"type":"Point","coordinates":[-8.65652109377262,40.6426860443854]},"properties":{"nome":"Aveiro Rossio Hostel, Lda","imgurl":"https:\/\/upload.wikimedia.org\/wikipedia\/commons\/d\/d1\/Image_not_available.png"}},{"type":"Feature","geometry":{"type":"Point","coordinates":[-8.70103615636127,40.7602487445818]},"properties":{"nome":"O Veleiro","imgurl":"https:\/\/upload.wikimedia.org\/wikipedia\/commons\/d\/d1\/Image_not_available.png"}},{"type":"Feature","geometry":{"type":"Point","coordinates":[-8.74604356669256,40.6271708325676]},"properties":{"nome":"CASA DO BICO DA BIARRITZ","imgurl":"https:\/\/upload.wikimedia.org\/wikipedia\/commons\/d\/d1\/Image_not_available.png"}},{"type":"Feature","geometry":{"type":"Point","coordinates":[-8.710139163326,40.7600289369408]},"properties":{"nome":"See U Inn","imgurl":"https:\/\/upload.wikimedia.org\/wikipedia\/commons\/d\/d1\/Image_not_available.png"}},{"type":"Feature","geometry":{"type":"Point","coordinates":[-8.65762197466173,40.6427981280048]},"properties":{"nome":"Aveiro Rossio Logde","imgurl":"https:\/\/upload.wikimedia.org\/wikipedia\/commons\/d\/d1\/Image_not_available.png"}},{"type":"Feature","geometry":{"type":"Point","coordinates":[-8.65091365705554,40.6379049586794]},"properties":{"nome":"Hospedaria 5 Bicas","imgurl":"https:\/\/upload.wikimedia.org\/wikipedia\/commons\/d\/d1\/Image_not_available.png"}},{"type":"Feature","geometry":{"type":"Point","coordinates":[-8.59244479725735,40.6610609000581]},"properties":{"nome":"A Talha","imgurl":"https:\/\/upload.wikimedia.org\/wikipedia\/commons\/d\/d1\/Image_not_available.png"}},{"type":"Feature","geometry":{"type":"Point","coordinates":[-8.65741592000018,40.6433246816303]},"properties":{"nome":"Saberamar one","imgurl":"https:\/\/upload.wikimedia.org\/wikipedia\/commons\/d\/d1\/Image_not_available.png"}},{"type":"Feature","geometry":{"type":"Point","coordinates":[-8.6508324277943,40.6423627931782]},"properties":{"nome":"Hospedaria Familiar","imgurl":"https:\/\/upload.wikimedia.org\/wikipedia\/commons\/d\/d1\/Image_not_available.png"}},{"type":"Feature","geometry":{"type":"Point","coordinates":[-8.65325730324132,40.6419082899208]},"properties":{"nome":"Residencial Beira","imgurl":"https:\/\/upload.wikimedia.org\/wikipedia\/commons\/d\/d1\/Image_not_available.png"}},{"type":"Feature","geometry":{"type":"Point","coordinates":[-8.65437974998545,40.6423255923871]},"properties":{"nome":"Pens\u00e3o Ferro - Alojamento Local","imgurl":"https:\/\/upload.wikimedia.org\/wikipedia\/commons\/d\/d1\/Image_not_available.png"}},{"type":"Feature","geometry":{"type":"Point","coordinates":[-8.74179937911465,40.6383623229115]},"properties":{"nome":"O NINHO","imgurl":"https:\/\/upload.wikimedia.org\/wikipedia\/commons\/d\/d1\/Image_not_available.png"}},{"type":"Feature","geometry":{"type":"Point","coordinates":[-8.6531074220311,40.6443213532344]},"properties":{"nome":"Casa da Beira Mar","imgurl":"https:\/\/upload.wikimedia.org\/wikipedia\/commons\/d\/d1\/Image_not_available.png"}},{"type":"Feature","geometry":{"type":"Point","coordinates":[-8.65198249953007,40.6293900010691]},"properties":{"nome":"Next University","imgurl":"https:\/\/upload.wikimedia.org\/wikipedia\/commons\/d\/d1\/Image_not_available.png"}},{"type":"Feature","geometry":{"type":"Point","coordinates":[-8.65139205575842,40.6353736210157]},"properties":{"nome":"Up Red","imgurl":"https:\/\/upload.wikimedia.org\/wikipedia\/commons\/d\/d1\/Image_not_available.png"}},{"type":"Feature","geometry":{"type":"Point","coordinates":[-8.64943650962315,40.643002607276]},"properties":{"nome":"Fernando Guest House","imgurl":"https:\/\/upload.wikimedia.org\/wikipedia\/commons\/d\/d1\/Image_not_available.png"}},{"type":"Feature","geometry":{"type":"Point","coordinates":[-8.65612210973414,40.6424857664018]},"properties":{"nome":"Maria Jos\u00e9 Rosa Soares Carinho C\u00f3ia","imgurl":"https:\/\/upload.wikimedia.org\/wikipedia\/commons\/d\/d1\/Image_not_available.png"}},{"type":"Feature","geometry":{"type":"Point","coordinates":[-8.74973390247358,40.6100300237272]},"properties":{"nome":"CASA GOLFINHO","imgurl":"https:\/\/upload.wikimedia.org\/wikipedia\/commons\/d\/d1\/Image_not_available.png"}},{"type":"Feature","geometry":{"type":"Point","coordinates":[-8.61636756478908,40.6532459349484]},"properties":{"nome":"O RODRIGO","imgurl":"https:\/\/upload.wikimedia.org\/wikipedia\/commons\/d\/d1\/Image_not_available.png"}},{"type":"Feature","geometry":{"type":"Point","coordinates":[-8.64127572130545,40.6442283205479]},"properties":{"nome":"Residencial Sta Joana","imgurl":"https:\/\/upload.wikimedia.org\/wikipedia\/commons\/d\/d1\/Image_not_available.png"}},{"type":"Feature","geometry":{"type":"Point","coordinates":[-8.62849360390749,40.6748743428287]},"properties":{"nome":"A CASA DA TI LAURA","imgurl":"https:\/\/upload.wikimedia.org\/wikipedia\/commons\/d\/d1\/Image_not_available.png"}},{"type":"Feature","geometry":{"type":"Point","coordinates":[-8.74973390247358,40.6100300237272]},"properties":{"nome":"casa golfinho","imgurl":"https:\/\/upload.wikimedia.org\/wikipedia\/commons\/d\/d1\/Image_not_available.png"}},{"type":"Feature","geometry":{"type":"Point","coordinates":[-8.74617638620057,40.6395786981117]},"properties":{"nome":"FERNANDES LAVRADOR - AL","imgurl":"https:\/\/upload.wikimedia.org\/wikipedia\/commons\/d\/d1\/Image_not_available.png"}},{"type":"Feature","geometry":{"type":"Point","coordinates":[-8.65332423761145,40.6416959364074]},"properties":{"nome":"Estrela Palace","imgurl":"https:\/\/upload.wikimedia.org\/wikipedia\/commons\/d\/d1\/Image_not_available.png"}},{"type":"Feature","geometry":{"type":"Point","coordinates":[-8.70195587760032,40.6432304478968]},"properties":{"nome":"VALDEMIRO TAVARES RIBEIRO","imgurl":"https:\/\/upload.wikimedia.org\/wikipedia\/commons\/d\/d1\/Image_not_available.png"}},{"type":"Feature","geometry":{"type":"Point","coordinates":[-8.49401366878274,40.6300603916029]},"properties":{"nome":"Quinta da Fontoura, Lda","imgurl":"https:\/\/upload.wikimedia.org\/wikipedia\/commons\/d\/d1\/Image_not_available.png"}},{"type":"Feature","geometry":{"type":"Point","coordinates":[-8.62983349954425,40.8464520006861]},"properties":{"nome":"Be & See in Nature","imgurl":"https:\/\/upload.wikimedia.org\/wikipedia\/commons\/d\/d1\/Image_not_available.png"}},{"type":"Feature","geometry":{"type":"Point","coordinates":[-8.75242512211414,40.6179193027689]},"properties":{"nome":"APARTAMENTO FRENTE AO MAR","imgurl":"https:\/\/upload.wikimedia.org\/wikipedia\/commons\/d\/d1\/Image_not_available.png"}},{"type":"Feature","geometry":{"type":"Point","coordinates":[-8.75050614549578,40.6164528731942]},"properties":{"nome":"BELA VISTA","imgurl":"https:\/\/upload.wikimedia.org\/wikipedia\/commons\/d\/d1\/Image_not_available.png"}},{"type":"Feature","geometry":{"type":"Point","coordinates":[-8.70654049972141,40.7180220009916]},"properties":{"nome":"Pedro Mendon\u00e7a","imgurl":"https:\/\/upload.wikimedia.org\/wikipedia\/commons\/d\/d1\/Image_not_available.png"}},{"type":"Feature","geometry":{"type":"Point","coordinates":[-8.74426021502085,40.6436422945941]},"properties":{"nome":"INFANTE DOM HENRIQUE - AL","imgurl":"https:\/\/upload.wikimedia.org\/wikipedia\/commons\/d\/d1\/Image_not_available.png"}},{"type":"Feature","geometry":{"type":"Point","coordinates":[-8.69140250018518,40.777224001087]},"properties":{"nome":"Pedro Manuel Guedes de Pinho de Bastos Monteiro","imgurl":"https:\/\/upload.wikimedia.org\/wikipedia\/commons\/d\/d1\/Image_not_available.png"}},{"type":"Feature","geometry":{"type":"Point","coordinates":[-8.76681239687244,40.5643165961003]},"properties":{"nome":"Slide Surf Camp","imgurl":"https:\/\/upload.wikimedia.org\/wikipedia\/commons\/d\/d1\/Image_not_available.png"}},{"type":"Feature","geometry":{"type":"Point","coordinates":[-8.7447405702544,40.6428973484513]},"properties":{"nome":"VISTA FAROL","imgurl":"https:\/\/upload.wikimedia.org\/wikipedia\/commons\/d\/d1\/Image_not_available.png"}},{"type":"Feature","geometry":{"type":"Point","coordinates":[-8.67706721093234,40.8737640801789]},"properties":{"nome":"Alojamento Local - Avenida","imgurl":"https:\/\/upload.wikimedia.org\/wikipedia\/commons\/d\/d1\/Image_not_available.png"}},{"type":"Feature","geometry":{"type":"Point","coordinates":[-8.56782325092735,40.6236582721657]},"properties":{"nome":"Casa d' Eixo","imgurl":"https:\/\/upload.wikimedia.org\/wikipedia\/commons\/d\/d1\/Image_not_available.png"}},{"type":"Feature","geometry":{"type":"Point","coordinates":[-8.65360177122018,40.6420698145753]},"properties":{"nome":"Urban City","imgurl":"https:\/\/upload.wikimedia.org\/wikipedia\/commons\/d\/d1\/Image_not_available.png"}},{"type":"Feature","geometry":{"type":"Point","coordinates":[-8.74736552656634,40.6424175262084]},"properties":{"nome":"ANT\u00d3NIO PINTO","imgurl":"https:\/\/upload.wikimedia.org\/wikipedia\/commons\/d\/d1\/Image_not_available.png"}},{"type":"Feature","geometry":{"type":"Point","coordinates":[-8.7427001629692,40.6411816593057]},"properties":{"nome":"JORMAR","imgurl":"https:\/\/upload.wikimedia.org\/wikipedia\/commons\/d\/d1\/Image_not_available.png"}},{"type":"Feature","geometry":{"type":"Point","coordinates":[-8.70017535652006,40.7615336245479]},"properties":{"nome":"casa da Varanda ","imgurl":"https:\/\/upload.wikimedia.org\/wikipedia\/commons\/d\/d1\/Image_not_available.png"}},{"type":"Feature","geometry":{"type":"Point","coordinates":[-8.45035180179643,40.5832539189504]},"properties":{"nome":"RESIDENCIAL CELESTE","imgurl":"https:\/\/upload.wikimedia.org\/wikipedia\/commons\/d\/d1\/Image_not_available.png"}},{"type":"Feature","geometry":{"type":"Point","coordinates":[-8.54811910402216,40.7033054165989]},"properties":{"nome":"Casa Vila Palmeira","imgurl":"https:\/\/upload.wikimedia.org\/wikipedia\/commons\/d\/d1\/Image_not_available.png"}},{"type":"Feature","geometry":{"type":"Point","coordinates":[-8.65540367759407,40.6432007863516]},"properties":{"nome":"Casa do Mercado","imgurl":"https:\/\/upload.wikimedia.org\/wikipedia\/commons\/d\/d1\/Image_not_available.png"}},{"type":"Feature","geometry":{"type":"Point","coordinates":[-8.65072250005466,40.6454910011067]},"properties":{"nome":"Apart T1","imgurl":"https:\/\/upload.wikimedia.org\/wikipedia\/commons\/d\/d1\/Image_not_available.png"}},{"type":"Feature","geometry":{"type":"Point","coordinates":[-8.74973390247358,40.6100300237272]},"properties":{"nome":"CASA DO GOLFINHO","imgurl":"https:\/\/upload.wikimedia.org\/wikipedia\/commons\/d\/d1\/Image_not_available.png"}},{"type":"Feature","geometry":{"type":"Point","coordinates":[-8.7509510648863,40.6142823498574]},"properties":{"nome":"CN","imgurl":"https:\/\/upload.wikimedia.org\/wikipedia\/commons\/d\/d1\/Image_not_available.png"}},{"type":"Feature","geometry":{"type":"Point","coordinates":[-8.64325250002075,40.6426200012903]},"properties":{"nome":"AVEIRO URBAN FLAT","imgurl":"https:\/\/upload.wikimedia.org\/wikipedia\/commons\/d\/d1\/Image_not_available.png"}},{"type":"Feature","geometry":{"type":"Point","coordinates":[-8.69873382369544,40.764650085762]},"properties":{"nome":"Casa de Mar e Ria","imgurl":"https:\/\/upload.wikimedia.org\/wikipedia\/commons\/d\/d1\/Image_not_available.png"}},{"type":"Feature","geometry":{"type":"Point","coordinates":[-8.74909579139801,40.6100357985868]},"properties":{"nome":"L'ALCIB\u00cdADES","imgurl":"https:\/\/upload.wikimedia.org\/wikipedia\/commons\/d\/d1\/Image_not_available.png"}},{"type":"Feature","geometry":{"type":"Point","coordinates":[-8.67323745122935,40.8718112075269]},"properties":{"nome":"Oceanus Premium Apartment","imgurl":"https:\/\/upload.wikimedia.org\/wikipedia\/commons\/d\/d1\/Image_not_available.png"}},{"type":"Feature","geometry":{"type":"Point","coordinates":[-8.6527571599187,40.6392104085939]},"properties":{"nome":"Green Balconies","imgurl":"https:\/\/upload.wikimedia.org\/wikipedia\/commons\/d\/d1\/Image_not_available.png"}},{"type":"Feature","geometry":{"type":"Point","coordinates":[-8.73519975047135,40.6652895010294]},"properties":{"nome":"DUNAS VILLA","imgurl":"https:\/\/upload.wikimedia.org\/wikipedia\/commons\/d\/d1\/Image_not_available.png"}},{"type":"Feature","geometry":{"type":"Point","coordinates":[-8.71212950031389,40.7610150006522]},"properties":{"nome":"Casa de f\u00e9rias","imgurl":"https:\/\/upload.wikimedia.org\/wikipedia\/commons\/d\/d1\/Image_not_available.png"}},{"type":"Feature","geometry":{"type":"Point","coordinates":[-8.64232100007171,40.6439520013419]},"properties":{"nome":"AVEIRO.train.STUDIOS","imgurl":"https:\/\/upload.wikimedia.org\/wikipedia\/commons\/d\/d1\/Image_not_available.png"}},{"type":"Feature","geometry":{"type":"Point","coordinates":[-8.76494149988473,40.5644550007421]},"properties":{"nome":"Casa Cremers - Maison au Portugal","imgurl":"https:\/\/upload.wikimedia.org\/wikipedia\/commons\/d\/d1\/Image_not_available.png"}},{"type":"Feature","geometry":{"type":"Point","coordinates":[-8.53253095600214,40.6505824101023]},"properties":{"nome":"Vale da Silva Villas","imgurl":"https:\/\/upload.wikimedia.org\/wikipedia\/commons\/d\/d1\/Image_not_available.png"}},{"type":"Feature","geometry":{"type":"Point","coordinates":[-8.74516696997706,40.6363704631479]},"properties":{"nome":"CASA PRAIA SOL","imgurl":"https:\/\/upload.wikimedia.org\/wikipedia\/commons\/d\/d1\/Image_not_available.png"}},{"type":"Feature","geometry":{"type":"Point","coordinates":[-8.74916666667731,40.6096666675723]},"properties":{"nome":"Margarita\u00b4s Ville","imgurl":"https:\/\/upload.wikimedia.org\/wikipedia\/commons\/d\/d1\/Image_not_available.png"}},{"type":"Feature","geometry":{"type":"Point","coordinates":[-8.69907365996066,40.7636223971714]},"properties":{"nome":"Adriano Gabriel Henriques dos Santos","imgurl":"https:\/\/upload.wikimedia.org\/wikipedia\/commons\/d\/d1\/Image_not_available.png"}},{"type":"Feature","geometry":{"type":"Point","coordinates":[-8.72355050027482,40.6315680010635]},"properties":{"nome":"LE TOUT - VACANCES AU PORTUGAL","imgurl":"https:\/\/upload.wikimedia.org\/wikipedia\/commons\/d\/d1\/Image_not_available.png"}},{"type":"Feature","geometry":{"type":"Point","coordinates":[-8.64682099999476,40.6289580006061]},"properties":{"nome":"Aveiro Sul","imgurl":"https:\/\/upload.wikimedia.org\/wikipedia\/commons\/d\/d1\/Image_not_available.png"}},{"type":"Feature","geometry":{"type":"Point","coordinates":[-8.75986999986279,40.5615660007382]},"properties":{"nome":"VagueiraHouse","imgurl":"https:\/\/upload.wikimedia.org\/wikipedia\/commons\/d\/d1\/Image_not_available.png"}},{"type":"Feature","geometry":{"type":"Point","coordinates":[-8.64335802601551,40.7496019407599]},"properties":{"nome":"Retiro da Atafona ","imgurl":"https:\/\/upload.wikimedia.org\/wikipedia\/commons\/d\/d1\/Image_not_available.png"}},{"type":"Feature","geometry":{"type":"Point","coordinates":[-8.71170302243781,40.7597993834278]},"properties":{"nome":"Edificio Palage ","imgurl":"https:\/\/upload.wikimedia.org\/wikipedia\/commons\/d\/d1\/Image_not_available.png"}},{"type":"Feature","geometry":{"type":"Point","coordinates":[-8.72412200037375,40.6276350008935]},"properties":{"nome":"LE TOUT - VILLA AU PORUGAL","imgurl":"https:\/\/upload.wikimedia.org\/wikipedia\/commons\/d\/d1\/Image_not_available.png"}},{"type":"Feature","geometry":{"type":"Point","coordinates":[-8.74640912980922,40.6267755826973]},"properties":{"nome":"Palheiro Amarelo da Biarritz","imgurl":"https:\/\/upload.wikimedia.org\/wikipedia\/commons\/d\/d1\/Image_not_available.png"}},{"type":"Feature","geometry":{"type":"Point","coordinates":[-8.64828753383205,40.6436258471128]},"properties":{"nome":"Feelings Aveiro Apartment","imgurl":"https:\/\/upload.wikimedia.org\/wikipedia\/commons\/d\/d1\/Image_not_available.png"}},{"type":"Feature","geometry":{"type":"Point","coordinates":[-8.73889099983902,40.6405140007008]},"properties":{"nome":"CASA DAS RISCAS","imgurl":"https:\/\/upload.wikimedia.org\/wikipedia\/commons\/d\/d1\/Image_not_available.png"}},{"type":"Feature","geometry":{"type":"Point","coordinates":[-8.74332350035157,40.6407210008922]},"properties":{"nome":"Casa da Barra","imgurl":"https:\/\/upload.wikimedia.org\/wikipedia\/commons\/d\/d1\/Image_not_available.png"}},{"type":"Feature","geometry":{"type":"Point","coordinates":[-8.65419200029445,40.6427820006807]},"properties":{"nome":"Casa da Pra\u00e7a","imgurl":"https:\/\/upload.wikimedia.org\/wikipedia\/commons\/d\/d1\/Image_not_available.png"}},{"type":"Feature","geometry":{"type":"Point","coordinates":[-8.65203759590138,40.642910000813]},"properties":{"nome":"Casa dos P\u00e1tios II","imgurl":"https:\/\/upload.wikimedia.org\/wikipedia\/commons\/d\/d1\/Image_not_available.png"}},{"type":"Feature","geometry":{"type":"Point","coordinates":[-8.62657789985172,40.6712516975457]},"properties":{"nome":"Casa do Pa\u00e7o","imgurl":"https:\/\/upload.wikimedia.org\/wikipedia\/commons\/d\/d1\/Image_not_available.png"}},{"type":"Feature","geometry":{"type":"Point","coordinates":[-8.64909643440604,40.6264812525507]},"properties":{"nome":"Fernando Castanheira","imgurl":"https:\/\/upload.wikimedia.org\/wikipedia\/commons\/d\/d1\/Image_not_available.png"}},{"type":"Feature","geometry":{"type":"Point","coordinates":[-8.53264053609374,40.6506692495672]},"properties":{"nome":"Vale da Silva Villas","imgurl":"https:\/\/upload.wikimedia.org\/wikipedia\/commons\/d\/d1\/Image_not_available.png"}},{"type":"Feature","geometry":{"type":"Point","coordinates":[-8.73412550013883,40.667118001116]},"properties":{"nome":"Dunas","imgurl":"https:\/\/upload.wikimedia.org\/wikipedia\/commons\/d\/d1\/Image_not_available.png"}},{"type":"Feature","geometry":{"type":"Point","coordinates":[-8.74694444397187,40.6410277785282]},"properties":{"nome":"UP ROYAL","imgurl":"https:\/\/upload.wikimedia.org\/wikipedia\/commons\/d\/d1\/Image_not_available.png"}},{"type":"Feature","geometry":{"type":"Point","coordinates":[-8.74758564525198,40.6417022831516]},"properties":{"nome":"HOUSE BARRA BEACH","imgurl":"https:\/\/upload.wikimedia.org\/wikipedia\/commons\/d\/d1\/Image_not_available.png"}},{"type":"Feature","geometry":{"type":"Point","coordinates":[-8.65400750070812,40.6383540010415]},"properties":{"nome":"AVEIRO DOWNTOWN","imgurl":"https:\/\/upload.wikimedia.org\/wikipedia\/commons\/d\/d1\/Image_not_available.png"}},{"type":"Feature","geometry":{"type":"Point","coordinates":[-8.65538403233714,40.6404089894816]},"properties":{"nome":"Casa do Cais","imgurl":"https:\/\/upload.wikimedia.org\/wikipedia\/commons\/d\/d1\/Image_not_available.png"}},{"type":"Feature","geometry":{"type":"Point","coordinates":[-8.65167726996283,40.6391752053699]},"properties":{"nome":"VIC \/\/ Aveiro Arts House","imgurl":"https:\/\/upload.wikimedia.org\/wikipedia\/commons\/d\/d1\/Image_not_available.png"}},{"type":"Feature","geometry":{"type":"Point","coordinates":[-8.74710638596308,40.6398285884419]},"properties":{"nome":"Habita\u00e7\u00e3o Oliveira","imgurl":"https:\/\/upload.wikimedia.org\/wikipedia\/commons\/d\/d1\/Image_not_available.png"}},{"type":"Feature","geometry":{"type":"Point","coordinates":[-8.70654049972141,40.7180220009916]},"properties":{"nome":"Laura da Concei\u00e7\u00e3o Teixeira Alves","imgurl":"https:\/\/upload.wikimedia.org\/wikipedia\/commons\/d\/d1\/Image_not_available.png"}},{"type":"Feature","geometry":{"type":"Point","coordinates":[-8.55518484061862,40.7166312678784]},"properties":{"nome":"P\u00e1tio","imgurl":"https:\/\/upload.wikimedia.org\/wikipedia\/commons\/d\/d1\/Image_not_available.png"}},{"type":"Feature","geometry":{"type":"Point","coordinates":[-8.65325485084061,40.6426882378685]},"properties":{"nome":"PONTO DE ABRIGO","imgurl":"https:\/\/upload.wikimedia.org\/wikipedia\/commons\/d\/d1\/Image_not_available.png"}},{"type":"Feature","geometry":{"type":"Point","coordinates":[-8.65937354932858,40.6394430610626]},"properties":{"nome":"Casa do Canal","imgurl":"https:\/\/upload.wikimedia.org\/wikipedia\/commons\/d\/d1\/Image_not_available.png"}},{"type":"Feature","geometry":{"type":"Point","coordinates":[-8.74131199995389,40.6429350015238]},"properties":{"nome":"APARTAMENTO RIA MAR","imgurl":"https:\/\/upload.wikimedia.org\/wikipedia\/commons\/d\/d1\/Image_not_available.png"}},{"type":"Feature","geometry":{"type":"Point","coordinates":[-8.67658249527641,40.8739821181217]},"properties":{"nome":"Furadouro Surf Camp","imgurl":"https:\/\/upload.wikimedia.org\/wikipedia\/commons\/d\/d1\/Image_not_available.png"}},{"type":"Feature","geometry":{"type":"Point","coordinates":[-8.74689232641403,40.640570065148]},"properties":{"nome":"RESIDENCIAL TROPIC\u00c1LIA ALOJAMENTO LOCAL","imgurl":"https:\/\/upload.wikimedia.org\/wikipedia\/commons\/d\/d1\/Image_not_available.png"}},{"type":"Feature","geometry":{"type":"Point","coordinates":[-8.64975049956105,40.6430700009741]},"properties":{"nome":"Aveiro Guest House","imgurl":"https:\/\/upload.wikimedia.org\/wikipedia\/commons\/d\/d1\/Image_not_available.png"}},{"type":"Feature","geometry":{"type":"Point","coordinates":[-8.70442353710937,40.7632445529007]},"properties":{"nome":"Apartamento Areal","imgurl":"https:\/\/upload.wikimedia.org\/wikipedia\/commons\/d\/d1\/Image_not_available.png"}},{"type":"Feature","geometry":{"type":"Point","coordinates":[-8.66485529377111,40.8329824835749]},"properties":{"nome":"Cristiana Sofia Gon\u00e7alves Sousa","imgurl":"https:\/\/upload.wikimedia.org\/wikipedia\/commons\/d\/d1\/Image_not_available.png"}},{"type":"Feature","geometry":{"type":"Point","coordinates":[-8.75122099964605,40.6155120006066]},"properties":{"nome":"Apartamento Velamarina","imgurl":"https:\/\/upload.wikimedia.org\/wikipedia\/commons\/d\/d1\/Image_not_available.png"}},{"type":"Feature","geometry":{"type":"Point","coordinates":[-8.6582374993961,40.6427280007003]},"properties":{"nome":"Aveiro Flat Ria View","imgurl":"https:\/\/upload.wikimedia.org\/wikipedia\/commons\/d\/d1\/Image_not_available.png"}},{"type":"Feature","geometry":{"type":"Point","coordinates":[-8.65489502183582,40.6421876828974]},"properties":{"nome":"Harbour49 - Flats & Suites","imgurl":"https:\/\/upload.wikimedia.org\/wikipedia\/commons\/d\/d1\/Image_not_available.png"}},{"type":"Feature","geometry":{"type":"Point","coordinates":[-8.64235946683053,40.6439761435077]},"properties":{"nome":"Dona Dores House","imgurl":"https:\/\/upload.wikimedia.org\/wikipedia\/commons\/d\/d1\/Image_not_available.png"}},{"type":"Feature","geometry":{"type":"Point","coordinates":[-8.65205363442246,40.6428603640341]},"properties":{"nome":"Casa dos P\u00e1tios I","imgurl":"https:\/\/upload.wikimedia.org\/wikipedia\/commons\/d\/d1\/Image_not_available.png"}},{"type":"Feature","geometry":{"type":"Point","coordinates":[-8.62407962755439,40.8586141111988]},"properties":{"nome":"S. Thom\u00e9 apts","imgurl":"https:\/\/upload.wikimedia.org\/wikipedia\/commons\/d\/d1\/Image_not_available.png"}},{"type":"Feature","geometry":{"type":"Point","coordinates":[-8.64561621456998,40.645461950599]},"properties":{"nome":"Apartamento Central Aveiro","imgurl":"https:\/\/upload.wikimedia.org\/wikipedia\/commons\/d\/d1\/Image_not_available.png"}},{"type":"Feature","geometry":{"type":"Point","coordinates":[-8.6406747025663,40.6476423605033]},"properties":{"nome":"Like Aveiro","imgurl":"https:\/\/upload.wikimedia.org\/wikipedia\/commons\/d\/d1\/Image_not_available.png"}},{"type":"Feature","geometry":{"type":"Point","coordinates":[-8.6478347209451,40.6346295649407]},"properties":{"nome":"Aveiro Ria Rent","imgurl":"https:\/\/upload.wikimedia.org\/wikipedia\/commons\/d\/d1\/Image_not_available.png"}},{"type":"Feature","geometry":{"type":"Point","coordinates":[-8.64975049956105,40.6430700009741]},"properties":{"nome":"Aveiro Guest House","imgurl":"https:\/\/upload.wikimedia.org\/wikipedia\/commons\/d\/d1\/Image_not_available.png"}},{"type":"Feature","geometry":{"type":"Point","coordinates":[-8.6559074995178,40.7513866687936]},"properties":{"nome":"casada Magn\u00f3lia","imgurl":"https:\/\/upload.wikimedia.org\/wikipedia\/commons\/d\/d1\/Image_not_available.png"}},{"type":"Feature","geometry":{"type":"Point","coordinates":[-8.67691879577269,40.8698042073659]},"properties":{"nome":"Alojamento Praia","imgurl":"https:\/\/upload.wikimedia.org\/wikipedia\/commons\/d\/d1\/Image_not_available.png"}},{"type":"Feature","geometry":{"type":"Point","coordinates":[-8.65563232757998,40.639648663763]},"properties":{"nome":"Home Sweet Home Aveiro Arrochela","imgurl":"https:\/\/upload.wikimedia.org\/wikipedia\/commons\/d\/d1\/Image_not_available.png"}},{"type":"Feature","geometry":{"type":"Point","coordinates":[-8.65003439234367,40.6374169148996]},"properties":{"nome":"Home for You Aveiro","imgurl":"https:\/\/upload.wikimedia.org\/wikipedia\/commons\/d\/d1\/Image_not_available.png"}},{"type":"Feature","geometry":{"type":"Point","coordinates":[-8.63992003238768,40.6159699955502]},"properties":{"nome":"ROTA AVEIRO","imgurl":"https:\/\/upload.wikimedia.org\/wikipedia\/commons\/d\/d1\/Image_not_available.png"}},{"type":"Feature","geometry":{"type":"Point","coordinates":[-8.65508128391672,40.6429732796265]},"properties":{"nome":"Primetierra","imgurl":"https:\/\/upload.wikimedia.org\/wikipedia\/commons\/d\/d1\/Image_not_available.png"}},{"type":"Feature","geometry":{"type":"Point","coordinates":[-8.65508128391672,40.6429732796265]},"properties":{"nome":"Primetierra","imgurl":"https:\/\/upload.wikimedia.org\/wikipedia\/commons\/d\/d1\/Image_not_available.png"}},{"type":"Feature","geometry":{"type":"Point","coordinates":[-8.65712149986074,40.6317930003584]},"properties":{"nome":"IlustreAparts","imgurl":"https:\/\/upload.wikimedia.org\/wikipedia\/commons\/d\/d1\/Image_not_available.png"}},{"type":"Feature","geometry":{"type":"Point","coordinates":[-8.62892884664581,40.6545572824577]},"properties":{"nome":"Casa da Ribeira","imgurl":"https:\/\/upload.wikimedia.org\/wikipedia\/commons\/d\/d1\/Image_not_available.png"}},{"type":"Feature","geometry":{"type":"Point","coordinates":[-8.64404450058931,40.6310280006168]},"properties":{"nome":"Reis e Rego Guest House","imgurl":"https:\/\/upload.wikimedia.org\/wikipedia\/commons\/d\/d1\/Image_not_available.png"}},{"type":"Feature","geometry":{"type":"Point","coordinates":[-8.67431995348604,40.8732514268042]},"properties":{"nome":"Furadouro Surf Camp","imgurl":"https:\/\/upload.wikimedia.org\/wikipedia\/commons\/d\/d1\/Image_not_available.png"}},{"type":"Feature","geometry":{"type":"Point","coordinates":[-8.65508034068567,40.642993103363]},"properties":{"nome":"Inn Pier Aveiro","imgurl":"https:\/\/upload.wikimedia.org\/wikipedia\/commons\/d\/d1\/Image_not_available.png"}},{"type":"Feature","geometry":{"type":"Point","coordinates":[-8.65508128391672,40.6429732796265]},"properties":{"nome":"Primetierra","imgurl":"https:\/\/upload.wikimedia.org\/wikipedia\/commons\/d\/d1\/Image_not_available.png"}},{"type":"Feature","geometry":{"type":"Point","coordinates":[-8.65509199991973,40.6435020014699]},"properties":{"nome":"Primetierra","imgurl":"https:\/\/upload.wikimedia.org\/wikipedia\/commons\/d\/d1\/Image_not_available.png"}},{"type":"Feature","geometry":{"type":"Point","coordinates":[-8.44677679442654,40.5717634022373]},"properties":{"nome":"XPT \u00c1GUEDA - ALOJAMENTO LOCAL","imgurl":"https:\/\/upload.wikimedia.org\/wikipedia\/commons\/d\/d1\/Image_not_available.png"}},{"type":"Feature","geometry":{"type":"Point","coordinates":[-8.74217249975783,40.640724000831]},"properties":{"nome":"BEACH T3 DUPLEX","imgurl":"https:\/\/upload.wikimedia.org\/wikipedia\/commons\/d\/d1\/Image_not_available.png"}},{"type":"Feature","geometry":{"type":"Point","coordinates":[-8.74609649992066,40.6367820011008]},"properties":{"nome":"AVEIRO E PRAIA","imgurl":"https:\/\/upload.wikimedia.org\/wikipedia\/commons\/d\/d1\/Image_not_available.png"}},{"type":"Feature","geometry":{"type":"Point","coordinates":[-8.65508128391672,40.6429732796265]},"properties":{"nome":"Primetierra","imgurl":"https:\/\/upload.wikimedia.org\/wikipedia\/commons\/d\/d1\/Image_not_available.png"}},{"type":"Feature","geometry":{"type":"Point","coordinates":[-8.65509199991973,40.6435020014699]},"properties":{"nome":"Primetierra","imgurl":"https:\/\/upload.wikimedia.org\/wikipedia\/commons\/d\/d1\/Image_not_available.png"}},{"type":"Feature","geometry":{"type":"Point","coordinates":[-8.65508128391672,40.6429732796265]},"properties":{"nome":"Primetierra","imgurl":"https:\/\/upload.wikimedia.org\/wikipedia\/commons\/d\/d1\/Image_not_available.png"}},{"type":"Feature","geometry":{"type":"Point","coordinates":[-8.65075506757696,40.7400981210991]},"properties":{"nome":"Maisoin proche de la mer","imgurl":"https:\/\/upload.wikimedia.org\/wikipedia\/commons\/d\/d1\/Image_not_available.png"}},{"type":"Feature","geometry":{"type":"Point","coordinates":[-8.47604531673813,40.5368788547207]},"properties":{"nome":"QUINTA DO VALE DO CRUZ","imgurl":"https:\/\/upload.wikimedia.org\/wikipedia\/commons\/d\/d1\/Image_not_available.png"}},{"type":"Feature","geometry":{"type":"Point","coordinates":[-8.65294945957663,40.6436685096761]},"properties":{"nome":"Casa do Vento","imgurl":"https:\/\/upload.wikimedia.org\/wikipedia\/commons\/d\/d1\/Image_not_available.png"}},{"type":"Feature","geometry":{"type":"Point","coordinates":[-8.65462826351891,40.6445479951724]},"properties":{"nome":"Seaside House","imgurl":"https:\/\/upload.wikimedia.org\/wikipedia\/commons\/d\/d1\/Image_not_available.png"}},{"type":"Feature","geometry":{"type":"Point","coordinates":[-8.63958049975302,40.6495500003966]},"properties":{"nome":"Alto das Marinhas","imgurl":"https:\/\/upload.wikimedia.org\/wikipedia\/commons\/d\/d1\/Image_not_available.png"}},{"type":"Feature","geometry":{"type":"Point","coordinates":[-8.5428074331208,40.6621942866129]},"properties":{"nome":"Casa Vale da Mulher","imgurl":"https:\/\/upload.wikimedia.org\/wikipedia\/commons\/d\/d1\/Image_not_available.png"}},{"type":"Feature","geometry":{"type":"Point","coordinates":[-8.65261822468021,40.6428518252857]},"properties":{"nome":"Casa Amarela","imgurl":"https:\/\/upload.wikimedia.org\/wikipedia\/commons\/d\/d1\/Image_not_available.png"}},{"type":"Feature","geometry":{"type":"Point","coordinates":[-8.65149726913943,40.6390582056247]},"properties":{"nome":"HOSTEL CIDADE AVEIRO","imgurl":"https:\/\/upload.wikimedia.org\/wikipedia\/commons\/d\/d1\/Image_not_available.png"}},{"type":"Feature","geometry":{"type":"Point","coordinates":[-8.65706219757729,40.6427418861606]},"properties":{"nome":"AVEIRO ROSSIO BED & BREAKFAST","imgurl":"https:\/\/upload.wikimedia.org\/wikipedia\/commons\/d\/d1\/Image_not_available.png"}},{"type":"Feature","geometry":{"type":"Point","coordinates":[-8.65294945957663,40.6436685096761]},"properties":{"nome":"Casa do Vento","imgurl":"https:\/\/upload.wikimedia.org\/wikipedia\/commons\/d\/d1\/Image_not_available.png"}},{"type":"Feature","geometry":{"type":"Point","coordinates":[-8.70654049972141,40.7180220009916]},"properties":{"nome":"Casa da Gaivina","imgurl":"https:\/\/upload.wikimedia.org\/wikipedia\/commons\/d\/d1\/Image_not_available.png"}},{"type":"Feature","geometry":{"type":"Point","coordinates":[-8.65327652898503,40.6428065413405]},"properties":{"nome":"Aveiro Duplex","imgurl":"https:\/\/upload.wikimedia.org\/wikipedia\/commons\/d\/d1\/Image_not_available.png"}},{"type":"Feature","geometry":{"type":"Point","coordinates":[-8.65152785677487,40.6425190102357]},"properties":{"nome":"RIVERS HOUSE","imgurl":"https:\/\/upload.wikimedia.org\/wikipedia\/commons\/d\/d1\/Image_not_available.png"}},{"type":"Feature","geometry":{"type":"Point","coordinates":[-8.74710350057437,40.6419990007796]},"properties":{"nome":"DIAMANTE AZUL-BARRA BEACH APARTMENT ","imgurl":"https:\/\/upload.wikimedia.org\/wikipedia\/commons\/d\/d1\/Image_not_available.png"}},{"type":"Feature","geometry":{"type":"Point","coordinates":[-8.74710350057437,40.6419990007796]},"properties":{"nome":"THE LIGHTHOUSE APARTMENT","imgurl":"https:\/\/upload.wikimedia.org\/wikipedia\/commons\/d\/d1\/Image_not_available.png"}},{"type":"Feature","geometry":{"type":"Point","coordinates":[-8.74984399999478,40.6105800004897]},"properties":{"nome":"CESTARIA-CANASTRA","imgurl":"https:\/\/upload.wikimedia.org\/wikipedia\/commons\/d\/d1\/Image_not_available.png"}},{"type":"Feature","geometry":{"type":"Point","coordinates":[-8.74529625910598,40.6424193563904]},"properties":{"nome":"Aveiro Beach House","imgurl":"https:\/\/upload.wikimedia.org\/wikipedia\/commons\/d\/d1\/Image_not_available.png"}},{"type":"Feature","geometry":{"type":"Point","coordinates":[-8.65529082134662,40.6404370067588]},"properties":{"nome":"Casa da Clara","imgurl":"https:\/\/upload.wikimedia.org\/wikipedia\/commons\/d\/d1\/Image_not_available.png"}},{"type":"Feature","geometry":{"type":"Point","coordinates":[-8.66405889684755,40.8708320409151]},"properties":{"nome":"Golden Waves Surf Lodge","imgurl":"https:\/\/upload.wikimedia.org\/wikipedia\/commons\/d\/d1\/Image_not_available.png"}},{"type":"Feature","geometry":{"type":"Point","coordinates":[-8.56471497853465,40.6297125658374]},"properties":{"nome":"A Casa de Eixo","imgurl":"https:\/\/upload.wikimedia.org\/wikipedia\/commons\/d\/d1\/Image_not_available.png"}},{"type":"Feature","geometry":{"type":"Point","coordinates":[-8.65322623410891,40.6443406599084]},"properties":{"nome":"Casa da Porta Azul","imgurl":"https:\/\/upload.wikimedia.org\/wikipedia\/commons\/d\/d1\/Image_not_available.png"}},{"type":"Feature","geometry":{"type":"Point","coordinates":[-8.64314273487621,40.6451105441708]},"properties":{"nome":"Casa da Av\u00f3","imgurl":"https:\/\/upload.wikimedia.org\/wikipedia\/commons\/d\/d1\/Image_not_available.png"}},{"type":"Feature","geometry":{"type":"Point","coordinates":[-8.750578499402,40.6156500006552]},"properties":{"nome":"belleview.charm","imgurl":"https:\/\/upload.wikimedia.org\/wikipedia\/commons\/d\/d1\/Image_not_available.png"}},{"type":"Feature","geometry":{"type":"Point","coordinates":[-8.72727199951138,40.6438440011858]},"properties":{"nome":"JARDIM OUDINOT","imgurl":"https:\/\/upload.wikimedia.org\/wikipedia\/commons\/d\/d1\/Image_not_available.png"}},{"type":"Feature","geometry":{"type":"Point","coordinates":[-8.65508128391672,40.6429732796265]},"properties":{"nome":"Primetierra","imgurl":"https:\/\/upload.wikimedia.org\/wikipedia\/commons\/d\/d1\/Image_not_available.png"}},{"type":"Feature","geometry":{"type":"Point","coordinates":[-8.65508128391672,40.6429732796265]},"properties":{"nome":"Primetierra","imgurl":"https:\/\/upload.wikimedia.org\/wikipedia\/commons\/d\/d1\/Image_not_available.png"}},{"type":"Feature","geometry":{"type":"Point","coordinates":[-8.65264591614717,40.6421511977253]},"properties":{"nome":"Aveiro City Center","imgurl":"https:\/\/upload.wikimedia.org\/wikipedia\/commons\/d\/d1\/Image_not_available.png"}},{"type":"Feature","geometry":{"type":"Point","coordinates":[-8.64492650067125,40.6408380011314]},"properties":{"nome":"Aveiro-City-Beach-Nature","imgurl":"https:\/\/upload.wikimedia.org\/wikipedia\/commons\/d\/d1\/Image_not_available.png"}},{"type":"Feature","geometry":{"type":"Point","coordinates":[-8.74990892663026,40.6118412811234]},"properties":{"nome":"CESTARIA-RIA","imgurl":"https:\/\/upload.wikimedia.org\/wikipedia\/commons\/d\/d1\/Image_not_available.png"}},{"type":"Feature","geometry":{"type":"Point","coordinates":[-8.75023199943398,40.6117890012158]},"properties":{"nome":"CASA DOS AFECTOS","imgurl":"https:\/\/upload.wikimedia.org\/wikipedia\/commons\/d\/d1\/Image_not_available.png"}},{"type":"Feature","geometry":{"type":"Point","coordinates":[-8.65425317646362,40.6425265149926]},"properties":{"nome":"Marnoto\u00b4s City Apartament","imgurl":"https:\/\/upload.wikimedia.org\/wikipedia\/commons\/d\/d1\/Image_not_available.png"}},{"type":"Feature","geometry":{"type":"Point","coordinates":[-8.70654049972141,40.7180220009916]},"properties":{"nome":"Rianatur Villas","imgurl":"https:\/\/upload.wikimedia.org\/wikipedia\/commons\/d\/d1\/Image_not_available.png"}},{"type":"Feature","geometry":{"type":"Point","coordinates":[-8.65211847392136,40.6428441767419]},"properties":{"nome":"Beira Mar Loft","imgurl":"https:\/\/upload.wikimedia.org\/wikipedia\/commons\/d\/d1\/Image_not_available.png"}},{"type":"Feature","geometry":{"type":"Point","coordinates":[-8.67535100024329,40.8718410009169]},"properties":{"nome":"Barramares","imgurl":"https:\/\/upload.wikimedia.org\/wikipedia\/commons\/d\/d1\/Image_not_available.png"}},{"type":"Feature","geometry":{"type":"Point","coordinates":[-8.64921663977084,40.6368787082421]},"properties":{"nome":"Apartamento Rua Infante D. Henrique","imgurl":"https:\/\/upload.wikimedia.org\/wikipedia\/commons\/d\/d1\/Image_not_available.png"}},{"type":"Feature","geometry":{"type":"Point","coordinates":[-8.63886499971403,40.7585651011554]},"properties":{"nome":"\"MIKE CHAL\u00c9\"","imgurl":"https:\/\/upload.wikimedia.org\/wikipedia\/commons\/d\/d1\/Image_not_available.png"}},{"type":"Feature","geometry":{"type":"Point","coordinates":[-8.6437340006063,40.6455990006425]},"properties":{"nome":"Casa do Canto","imgurl":"https:\/\/upload.wikimedia.org\/wikipedia\/commons\/d\/d1\/Image_not_available.png"}},{"type":"Feature","geometry":{"type":"Point","coordinates":[-8.65280324169614,40.7501812569927]},"properties":{"nome":"Mikes Apartamento","imgurl":"https:\/\/upload.wikimedia.org\/wikipedia\/commons\/d\/d1\/Image_not_available.png"}},{"type":"Feature","geometry":{"type":"Point","coordinates":[-8.7450299993541,40.640121000883]},"properties":{"nome":"Casa da Paia","imgurl":"https:\/\/upload.wikimedia.org\/wikipedia\/commons\/d\/d1\/Image_not_available.png"}},{"type":"Feature","geometry":{"type":"Point","coordinates":[-8.67535100024329,40.8718410009169]},"properties":{"nome":"Barramares","imgurl":"https:\/\/upload.wikimedia.org\/wikipedia\/commons\/d\/d1\/Image_not_available.png"}},{"type":"Feature","geometry":{"type":"Point","coordinates":[-8.67577850040216,40.872687001251]},"properties":{"nome":"Varandas do Sol","imgurl":"https:\/\/upload.wikimedia.org\/wikipedia\/commons\/d\/d1\/Image_not_available.png"}},{"type":"Feature","geometry":{"type":"Point","coordinates":[-8.67122773308918,40.872544635921]},"properties":{"nome":"Nine Senses Guest House","imgurl":"https:\/\/upload.wikimedia.org\/wikipedia\/commons\/d\/d1\/Image_not_available.png"}},{"type":"Feature","geometry":{"type":"Point","coordinates":[-8.66906784807456,40.6004338445199]},"properties":{"nome":"Beco da Malha","imgurl":"https:\/\/upload.wikimedia.org\/wikipedia\/commons\/d\/d1\/Image_not_available.png"}},{"type":"Feature","geometry":{"type":"Point","coordinates":[-8.57138519409805,40.7540422046052]},"properties":{"nome":"O SOLAR DA VILA","imgurl":"https:\/\/upload.wikimedia.org\/wikipedia\/commons\/d\/d1\/Image_not_available.png"}},{"type":"Feature","geometry":{"type":"Point","coordinates":[-8.6482855153176,40.6430001834136]},"properties":{"nome":"Aveiro Central Flat","imgurl":"https:\/\/upload.wikimedia.org\/wikipedia\/commons\/d\/d1\/Image_not_available.png"}},{"type":"Feature","geometry":{"type":"Point","coordinates":[-8.64975791695035,40.6274977407949]},"properties":{"nome":"HappyHouse","imgurl":"https:\/\/upload.wikimedia.org\/wikipedia\/commons\/d\/d1\/Image_not_available.png"}},{"type":"Feature","geometry":{"type":"Point","coordinates":[-8.44583966204067,40.5723060010344]},"properties":{"nome":"AGUEDA HOSTEL & FRIENDS","imgurl":"https:\/\/upload.wikimedia.org\/wikipedia\/commons\/d\/d1\/Image_not_available.png"}},{"type":"Feature","geometry":{"type":"Point","coordinates":[-8.71205402116877,40.7595433472961]},"properties":{"nome":"Edificio V\u00e9rtimo","imgurl":"https:\/\/upload.wikimedia.org\/wikipedia\/commons\/d\/d1\/Image_not_available.png"}},{"type":"Feature","geometry":{"type":"Point","coordinates":[-8.75007449961184,40.61136600116]},"properties":{"nome":"Palheiro Moderno","imgurl":"https:\/\/upload.wikimedia.org\/wikipedia\/commons\/d\/d1\/Image_not_available.png"}},{"type":"Feature","geometry":{"type":"Point","coordinates":[-8.63557996672121,40.6380799895322]},"properties":{"nome":"Martini's spot","imgurl":"https:\/\/upload.wikimedia.org\/wikipedia\/commons\/d\/d1\/Image_not_available.png"}},{"type":"Feature","geometry":{"type":"Point","coordinates":[-8.67698551005559,40.8697098865341]},"properties":{"nome":"Furadouro Beach Spot","imgurl":"https:\/\/upload.wikimedia.org\/wikipedia\/commons\/d\/d1\/Image_not_available.png"}},{"type":"Feature","geometry":{"type":"Point","coordinates":[-8.74990465873435,40.6182991639166]},"properties":{"nome":"Casa dos Far\u00f3is","imgurl":"https:\/\/upload.wikimedia.org\/wikipedia\/commons\/d\/d1\/Image_not_available.png"}},{"type":"Feature","geometry":{"type":"Point","coordinates":[-8.6361988897823,40.6369549032599]},"properties":{"nome":"Aveiro Urban Loft","imgurl":"https:\/\/upload.wikimedia.org\/wikipedia\/commons\/d\/d1\/Image_not_available.png"}},{"type":"Feature","geometry":{"type":"Point","coordinates":[-8.49410765771428,40.5143624491149]},"properties":{"nome":"Piso Oliveira 35","imgurl":"https:\/\/upload.wikimedia.org\/wikipedia\/commons\/d\/d1\/Image_not_available.png"}},{"type":"Feature","geometry":{"type":"Point","coordinates":[-8.75215350031831,40.618197000744]},"properties":{"nome":"Capuchinho Costa Nova","imgurl":"https:\/\/upload.wikimedia.org\/wikipedia\/commons\/d\/d1\/Image_not_available.png"}},{"type":"Feature","geometry":{"type":"Point","coordinates":[-8.63886499971403,40.7585651011554]},"properties":{"nome":"Urbaniza\u00e7\u00e3o Quinta dos Leites","imgurl":"https:\/\/upload.wikimedia.org\/wikipedia\/commons\/d\/d1\/Image_not_available.png"}},{"type":"Feature","geometry":{"type":"Point","coordinates":[-8.64343172739468,40.6424681775843]},"properties":{"nome":"Aveiro Urban Apartment","imgurl":"https:\/\/upload.wikimedia.org\/wikipedia\/commons\/d\/d1\/Image_not_available.png"}},{"type":"Feature","geometry":{"type":"Point","coordinates":[-8.74073699912031,40.6415340005002]},"properties":{"nome":"APARTAMENTO NOVO","imgurl":"https:\/\/upload.wikimedia.org\/wikipedia\/commons\/d\/d1\/Image_not_available.png"}},{"type":"Feature","geometry":{"type":"Point","coordinates":[-8.65264591614717,40.6421511977253]},"properties":{"nome":"Ria do Sal","imgurl":"https:\/\/upload.wikimedia.org\/wikipedia\/commons\/d\/d1\/Image_not_available.png"}},{"type":"Feature","geometry":{"type":"Point","coordinates":[-8.6537620692944,40.6421361526812]},"properties":{"nome":"Casa da Pra\u00e7a - Downtown Shelter","imgurl":"https:\/\/upload.wikimedia.org\/wikipedia\/commons\/d\/d1\/Image_not_available.png"}},{"type":"Feature","geometry":{"type":"Point","coordinates":[-8.65117126243799,40.6351222503855]},"properties":{"nome":"Alma Portuguesa","imgurl":"https:\/\/upload.wikimedia.org\/wikipedia\/commons\/d\/d1\/Image_not_available.png"}},{"type":"Feature","geometry":{"type":"Point","coordinates":[-8.64357924873062,40.6436809873972]},"properties":{"nome":"Casa da Luz apartment","imgurl":"https:\/\/upload.wikimedia.org\/wikipedia\/commons\/d\/d1\/Image_not_available.png"}},{"type":"Feature","geometry":{"type":"Point","coordinates":[-8.74618636109347,40.6396787072528]},"properties":{"nome":"Casas e Quintas de Praia","imgurl":"https:\/\/upload.wikimedia.org\/wikipedia\/commons\/d\/d1\/Image_not_available.png"}},{"type":"Feature","geometry":{"type":"Point","coordinates":[-8.75123784036267,40.6187679535861]},"properties":{"nome":"CASA DO PRADO","imgurl":"https:\/\/upload.wikimedia.org\/wikipedia\/commons\/d\/d1\/Image_not_available.png"}},{"type":"Feature","geometry":{"type":"Point","coordinates":[-8.63886499971403,40.7585651011554]},"properties":{"nome":"Casa dos Ameirinhos","imgurl":"https:\/\/upload.wikimedia.org\/wikipedia\/commons\/d\/d1\/Image_not_available.png"}},{"type":"Feature","geometry":{"type":"Point","coordinates":[-8.73108350005791,40.6636710007074]},"properties":{"nome":"Casa da Ilha dos Ovos","imgurl":"https:\/\/upload.wikimedia.org\/wikipedia\/commons\/d\/d1\/Image_not_available.png"}},{"type":"Feature","geometry":{"type":"Point","coordinates":[-8.6361988897823,40.6369549032599]},"properties":{"nome":"Aveirobestloft","imgurl":"https:\/\/upload.wikimedia.org\/wikipedia\/commons\/d\/d1\/Image_not_available.png"}},{"type":"Feature","geometry":{"type":"Point","coordinates":[-8.74618636109347,40.6396787072528]},"properties":{"nome":"Casas e Quintas de Praia","imgurl":"https:\/\/upload.wikimedia.org\/wikipedia\/commons\/d\/d1\/Image_not_available.png"}},{"type":"Feature","geometry":{"type":"Point","coordinates":[-8.65560602041688,40.6424312351906]},"properties":{"nome":"Walk Aveiro","imgurl":"https:\/\/upload.wikimedia.org\/wikipedia\/commons\/d\/d1\/Image_not_available.png"}},{"type":"Feature","geometry":{"type":"Point","coordinates":[-8.67584626032406,40.8743136364168]},"properties":{"nome":"Golden Pier","imgurl":"https:\/\/upload.wikimedia.org\/wikipedia\/commons\/d\/d1\/Image_not_available.png"}},{"type":"Feature","geometry":{"type":"Point","coordinates":[-8.78275788752599,40.4702045761851]},"properties":{"nome":"Quinta S\u00e3o Jos\u00e9","imgurl":"https:\/\/upload.wikimedia.org\/wikipedia\/commons\/d\/d1\/Image_not_available.png"}},{"type":"Feature","geometry":{"type":"Point","coordinates":[-8.6425369999818,40.6451940004597]},"properties":{"nome":"Rua de Viseu","imgurl":"https:\/\/upload.wikimedia.org\/wikipedia\/commons\/d\/d1\/Image_not_available.png"}},{"type":"Feature","geometry":{"type":"Point","coordinates":[-8.65508128391672,40.6429732796265]},"properties":{"nome":"S. Gon\u00e7alinho - Aveiro Suites Apartments","imgurl":"https:\/\/upload.wikimedia.org\/wikipedia\/commons\/d\/d1\/Image_not_available.png"}},{"type":"Feature","geometry":{"type":"Point","coordinates":[-8.74710350057437,40.6419990007796]},"properties":{"nome":"Apartamento Farol","imgurl":"https:\/\/upload.wikimedia.org\/wikipedia\/commons\/d\/d1\/Image_not_available.png"}},{"type":"Feature","geometry":{"type":"Point","coordinates":[-8.71066770598803,40.7592796613839]},"properties":{"nome":"Apartamento Marinheiros","imgurl":"https:\/\/upload.wikimedia.org\/wikipedia\/commons\/d\/d1\/Image_not_available.png"}},{"type":"Feature","geometry":{"type":"Point","coordinates":[-8.74990465873435,40.6182991639166]},"properties":{"nome":"Casa dos Far\u00f3is","imgurl":"https:\/\/upload.wikimedia.org\/wikipedia\/commons\/d\/d1\/Image_not_available.png"}},{"type":"Feature","geometry":{"type":"Point","coordinates":[-8.65399812768647,40.644775594]},"properties":{"nome":"Casa da Ponte Amarela","imgurl":"https:\/\/upload.wikimedia.org\/wikipedia\/commons\/d\/d1\/Image_not_available.png"}},{"type":"Feature","geometry":{"type":"Point","coordinates":[-8.65318400071413,40.6443480008736]},"properties":{"nome":"Casa do Patio Amarelo","imgurl":"https:\/\/upload.wikimedia.org\/wikipedia\/commons\/d\/d1\/Image_not_available.png"}},{"type":"Feature","geometry":{"type":"Point","coordinates":[-8.57138519409805,40.7540422046052]},"properties":{"nome":"O SOLAR DA VILA","imgurl":"https:\/\/upload.wikimedia.org\/wikipedia\/commons\/d\/d1\/Image_not_available.png"}},{"type":"Feature","geometry":{"type":"Point","coordinates":[-8.75121200032353,40.6167360010518]},"properties":{"nome":"COSTA NOVA","imgurl":"https:\/\/upload.wikimedia.org\/wikipedia\/commons\/d\/d1\/Image_not_available.png"}},{"type":"Feature","geometry":{"type":"Point","coordinates":[-8.76794300031938,40.5593880006472]},"properties":{"nome":"Secret Guest House","imgurl":"https:\/\/upload.wikimedia.org\/wikipedia\/commons\/d\/d1\/Image_not_available.png"}},{"type":"Feature","geometry":{"type":"Point","coordinates":[-8.6749291998949,40.8745459213033]},"properties":{"nome":"Apartamento Praia","imgurl":"https:\/\/upload.wikimedia.org\/wikipedia\/commons\/d\/d1\/Image_not_available.png"}},{"type":"Feature","geometry":{"type":"Point","coordinates":[-8.65615819416078,40.6421422424072]},"properties":{"nome":"Hist\u00f3rias por Metro Quadrado","imgurl":"https:\/\/upload.wikimedia.org\/wikipedia\/commons\/d\/d1\/Image_not_available.png"}},{"type":"Feature","geometry":{"type":"Point","coordinates":[-8.66632104068423,40.871028434725]},"properties":{"nome":"Maria Teresa Ferreira de Oliveira","imgurl":"https:\/\/upload.wikimedia.org\/wikipedia\/commons\/d\/d1\/Image_not_available.png"}},{"type":"Feature","geometry":{"type":"Point","coordinates":[-8.80031525763316,40.4632819178682]},"properties":{"nome":"S\u00f3t\u00e3o da Duna","imgurl":"https:\/\/upload.wikimedia.org\/wikipedia\/commons\/d\/d1\/Image_not_available.png"}},{"type":"Feature","geometry":{"type":"Point","coordinates":[-8.71460500031876,40.6178769906042]},"properties":{"nome":"F&A","imgurl":"https:\/\/upload.wikimedia.org\/wikipedia\/commons\/d\/d1\/Image_not_available.png"}},{"type":"Feature","geometry":{"type":"Point","coordinates":[-8.65398870346082,40.6396827270018]},"properties":{"nome":"MAR AVEIRO I","imgurl":"https:\/\/upload.wikimedia.org\/wikipedia\/commons\/d\/d1\/Image_not_available.png"}},{"type":"Feature","geometry":{"type":"Point","coordinates":[-8.65398870346082,40.6396827270018]},"properties":{"nome":"MAR AVEIRO IV","imgurl":"https:\/\/upload.wikimedia.org\/wikipedia\/commons\/d\/d1\/Image_not_available.png"}},{"type":"Feature","geometry":{"type":"Point","coordinates":[-8.65398870346082,40.6396827270018]},"properties":{"nome":"MAR AVEIRO V","imgurl":"https:\/\/upload.wikimedia.org\/wikipedia\/commons\/d\/d1\/Image_not_available.png"}},{"type":"Feature","geometry":{"type":"Point","coordinates":[-8.74618636109347,40.6396787072528]},"properties":{"nome":"Casas e Quintas de Praia","imgurl":"https:\/\/upload.wikimedia.org\/wikipedia\/commons\/d\/d1\/Image_not_available.png"}},{"type":"Feature","geometry":{"type":"Point","coordinates":[-8.65526609072686,40.6403536597212]},"properties":{"nome":"Casa Aveiro Canal da Ria","imgurl":"https:\/\/upload.wikimedia.org\/wikipedia\/commons\/d\/d1\/Image_not_available.png"}},{"type":"Feature","geometry":{"type":"Point","coordinates":[-8.5434056401331,40.5434395635591]},"properties":{"nome":"CENTEN\u00c1RIA","imgurl":"https:\/\/upload.wikimedia.org\/wikipedia\/commons\/d\/d1\/Image_not_available.png"}},{"type":"Feature","geometry":{"type":"Point","coordinates":[-8.65398870346082,40.6396827270018]},"properties":{"nome":"MAR AVEIRO II","imgurl":"https:\/\/upload.wikimedia.org\/wikipedia\/commons\/d\/d1\/Image_not_available.png"}},{"type":"Feature","geometry":{"type":"Point","coordinates":[-8.75007449961184,40.61136600116]},"properties":{"nome":"Casa Machado","imgurl":"https:\/\/upload.wikimedia.org\/wikipedia\/commons\/d\/d1\/Image_not_available.png"}},{"type":"Feature","geometry":{"type":"Point","coordinates":[-8.65504712996961,40.6430748452855]},"properties":{"nome":"Primetierra Apartamento 1\u00ba esquerdo","imgurl":"https:\/\/upload.wikimedia.org\/wikipedia\/commons\/d\/d1\/Image_not_available.png"}},{"type":"Feature","geometry":{"type":"Point","coordinates":[-8.65504712996961,40.6430748452855]},"properties":{"nome":"Primetierra Apartamento 2\u00ba esquerdo","imgurl":"https:\/\/upload.wikimedia.org\/wikipedia\/commons\/d\/d1\/Image_not_available.png"}},{"type":"Feature","geometry":{"type":"Point","coordinates":[-8.71205402116877,40.7595433472961]},"properties":{"nome":"Apart.Dunas","imgurl":"https:\/\/upload.wikimedia.org\/wikipedia\/commons\/d\/d1\/Image_not_available.png"}},{"type":"Feature","geometry":{"type":"Point","coordinates":[-8.6557940000766,40.6433670008485]},"properties":{"nome":"AVEIRO ROSSIO APARTMENTS LOFT","imgurl":"https:\/\/upload.wikimedia.org\/wikipedia\/commons\/d\/d1\/Image_not_available.png"}},{"type":"Feature","geometry":{"type":"Point","coordinates":[-8.65762327901551,40.6427490010009]},"properties":{"nome":"Apartamento Ria de Aveiro","imgurl":"https:\/\/upload.wikimedia.org\/wikipedia\/commons\/d\/d1\/Image_not_available.png"}},{"type":"Feature","geometry":{"type":"Point","coordinates":[-8.65359762729176,40.6421437379141]},"properties":{"nome":"Cantinho do SAL","imgurl":"https:\/\/upload.wikimedia.org\/wikipedia\/commons\/d\/d1\/Image_not_available.png"}},{"type":"Feature","geometry":{"type":"Point","coordinates":[-8.65425317646362,40.6425265149926]},"properties":{"nome":"Heart of Aveiro apartment","imgurl":"https:\/\/upload.wikimedia.org\/wikipedia\/commons\/d\/d1\/Image_not_available.png"}},{"type":"Feature","geometry":{"type":"Point","coordinates":[-8.49417448608322,40.6293539929561]},"properties":{"nome":"Quinta da Av\u00f3 Am\u00e9lia","imgurl":"https:\/\/upload.wikimedia.org\/wikipedia\/commons\/d\/d1\/Image_not_available.png"}},{"type":"Feature","geometry":{"type":"Point","coordinates":[-8.60204896174266,40.8499950007558]},"properties":{"nome":"Shining House","imgurl":"https:\/\/upload.wikimedia.org\/wikipedia\/commons\/d\/d1\/Image_not_available.png"}},{"type":"Feature","geometry":{"type":"Point","coordinates":[-8.65119616733092,40.6369001016719]},"properties":{"nome":"Casa do Parque","imgurl":"https:\/\/upload.wikimedia.org\/wikipedia\/commons\/d\/d1\/Image_not_available.png"}},{"type":"Feature","geometry":{"type":"Point","coordinates":[-8.64413694082533,40.6434080658555]},"properties":{"nome":"The Bohemian Place","imgurl":"https:\/\/upload.wikimedia.org\/wikipedia\/commons\/d\/d1\/Image_not_available.png"}},{"type":"Feature","geometry":{"type":"Point","coordinates":[-8.74710350057437,40.6419990007796]},"properties":{"nome":"Carlos Almeida","imgurl":"https:\/\/upload.wikimedia.org\/wikipedia\/commons\/d\/d1\/Image_not_available.png"}},{"type":"Feature","geometry":{"type":"Point","coordinates":[-8.65340311149003,40.6454320794308]},"properties":{"nome":"Aurora","imgurl":"https:\/\/upload.wikimedia.org\/wikipedia\/commons\/d\/d1\/Image_not_available.png"}},{"type":"Feature","geometry":{"type":"Point","coordinates":[-8.64786950011965,40.6419450008475]},"properties":{"nome":"Home Sweet Home Aveiro","imgurl":"https:\/\/upload.wikimedia.org\/wikipedia\/commons\/d\/d1\/Image_not_available.png"}},{"type":"Feature","geometry":{"type":"Point","coordinates":[-8.74310972556846,40.6407024136748]},"properties":{"nome":"BARRA'S BEACH APARTEMENT","imgurl":"https:\/\/upload.wikimedia.org\/wikipedia\/commons\/d\/d1\/Image_not_available.png"}},{"type":"Feature","geometry":{"type":"Point","coordinates":[-8.65398870346082,40.6396827270018]},"properties":{"nome":"MAR AVEIRO III","imgurl":"https:\/\/upload.wikimedia.org\/wikipedia\/commons\/d\/d1\/Image_not_available.png"}},{"type":"Feature","geometry":{"type":"Point","coordinates":[-8.74506049985295,40.6415310012794]},"properties":{"nome":"Casa da Ilha","imgurl":"https:\/\/upload.wikimedia.org\/wikipedia\/commons\/d\/d1\/Image_not_available.png"}},{"type":"Feature","geometry":{"type":"Point","coordinates":[-8.74595699964187,40.6373040014967]},"properties":{"nome":"SOSSEGO DA RIA","imgurl":"https:\/\/upload.wikimedia.org\/wikipedia\/commons\/d\/d1\/Image_not_available.png"}},{"type":"Feature","geometry":{"type":"Point","coordinates":[-8.64161683587334,40.6438818070882]},"properties":{"nome":"Aveiro White House","imgurl":"https:\/\/upload.wikimedia.org\/wikipedia\/commons\/d\/d1\/Image_not_available.png"}},{"type":"Feature","geometry":{"type":"Point","coordinates":[-8.64624327007933,40.6424864507596]},"properties":{"nome":"Aveiro Train Flat","imgurl":"https:\/\/upload.wikimedia.org\/wikipedia\/commons\/d\/d1\/Image_not_available.png"}},{"type":"Feature","geometry":{"type":"Point","coordinates":[-8.74919137214425,40.6193816287262]},"properties":{"nome":"Apartamento Velamarina X","imgurl":"https:\/\/upload.wikimedia.org\/wikipedia\/commons\/d\/d1\/Image_not_available.png"}},{"type":"Feature","geometry":{"type":"Point","coordinates":[-8.65504712996961,40.6430748452855]},"properties":{"nome":"Primetierra Apartamento 2\u00ba direito","imgurl":"https:\/\/upload.wikimedia.org\/wikipedia\/commons\/d\/d1\/Image_not_available.png"}},{"type":"Feature","geometry":{"type":"Point","coordinates":[-8.75159550010147,40.6081710010435]},"properties":{"nome":"CASA DA PRAIA","imgurl":"https:\/\/upload.wikimedia.org\/wikipedia\/commons\/d\/d1\/Image_not_available.png"}},{"type":"Feature","geometry":{"type":"Point","coordinates":[-8.74599749928814,40.6383750006731]},"properties":{"nome":"Barra Sol","imgurl":"https:\/\/upload.wikimedia.org\/wikipedia\/commons\/d\/d1\/Image_not_available.png"}},{"type":"Feature","geometry":{"type":"Point","coordinates":[-8.72782060245202,40.6254408713333]},"properties":{"nome":"COSTA NOVA SURF HOUSE","imgurl":"https:\/\/upload.wikimedia.org\/wikipedia\/commons\/d\/d1\/Image_not_available.png"}},{"type":"Feature","geometry":{"type":"Point","coordinates":[-8.60204896174266,40.8499950007558]},"properties":{"nome":"\"Calma House\"","imgurl":"https:\/\/upload.wikimedia.org\/wikipedia\/commons\/d\/d1\/Image_not_available.png"}},{"type":"Feature","geometry":{"type":"Point","coordinates":[-8.66926995464043,40.5987236095874]},"properties":{"nome":"P\u00c1TIO DOS VASINHOS","imgurl":"https:\/\/upload.wikimedia.org\/wikipedia\/commons\/d\/d1\/Image_not_available.png"}},{"type":"Feature","geometry":{"type":"Point","coordinates":[-8.6557940000766,40.6433670008485]},"properties":{"nome":"AVEIRO ROSSIO APARTMENTS STUDIO 1","imgurl":"https:\/\/upload.wikimedia.org\/wikipedia\/commons\/d\/d1\/Image_not_available.png"}},{"type":"Feature","geometry":{"type":"Point","coordinates":[-8.6546361794732,40.6427965991128]},"properties":{"nome":"A Lodge In Blue","imgurl":"https:\/\/upload.wikimedia.org\/wikipedia\/commons\/d\/d1\/Image_not_available.png"}},{"type":"Feature","geometry":{"type":"Point","coordinates":[-8.65508128391672,40.6429732796265]},"properties":{"nome":"S. Gon\u00e7alinho - Aveiro Suites Apartments","imgurl":"https:\/\/upload.wikimedia.org\/wikipedia\/commons\/d\/d1\/Image_not_available.png"}},{"type":"Feature","geometry":{"type":"Point","coordinates":[-8.67023450001552,40.6014360009149]},"properties":{"nome":"GALERA FAM\u00cdLIA","imgurl":"https:\/\/upload.wikimedia.org\/wikipedia\/commons\/d\/d1\/Image_not_available.png"}},{"type":"Feature","geometry":{"type":"Point","coordinates":[-8.65088237861567,40.6397253464142]},"properties":{"nome":"Casa Pirosa","imgurl":"https:\/\/upload.wikimedia.org\/wikipedia\/commons\/d\/d1\/Image_not_available.png"}},{"type":"Feature","geometry":{"type":"Point","coordinates":[-8.60204896174266,40.8499950007558]},"properties":{"nome":"Buc\u00f3lico Verde","imgurl":"https:\/\/upload.wikimedia.org\/wikipedia\/commons\/d\/d1\/Image_not_available.png"}},{"type":"Feature","geometry":{"type":"Point","coordinates":[-8.65704590483297,40.6393803296862]},"properties":{"nome":"CHARMING NINNA","imgurl":"https:\/\/upload.wikimedia.org\/wikipedia\/commons\/d\/d1\/Image_not_available.png"}},{"type":"Feature","geometry":{"type":"Point","coordinates":[-8.65504712996961,40.6430748452855]},"properties":{"nome":"Primetierra Apartamento 1\u00ba direito","imgurl":"https:\/\/upload.wikimedia.org\/wikipedia\/commons\/d\/d1\/Image_not_available.png"}},{"type":"Feature","geometry":{"type":"Point","coordinates":[-8.65061574606292,40.6424190598805]},"properties":{"nome":"Albergue dos Cagar\u00e9us","imgurl":"https:\/\/upload.wikimedia.org\/wikipedia\/commons\/d\/d1\/Image_not_available.png"}},{"type":"Feature","geometry":{"type":"Point","coordinates":[-8.6747670171552,40.8728078971511]},"properties":{"nome":"Praia do Furadouro, near Aveiro\/Porto","imgurl":"https:\/\/upload.wikimedia.org\/wikipedia\/commons\/d\/d1\/Image_not_available.png"}},{"type":"Feature","geometry":{"type":"Point","coordinates":[-8.67452462743702,40.8745267608486]},"properties":{"nome":"Casa do L\u00facio","imgurl":"https:\/\/upload.wikimedia.org\/wikipedia\/commons\/d\/d1\/Image_not_available.png"}},{"type":"Feature","geometry":{"type":"Point","coordinates":[-8.67540141010378,40.8735278711444]},"properties":{"nome":"FURADOURO HOUSE","imgurl":"https:\/\/upload.wikimedia.org\/wikipedia\/commons\/d\/d1\/Image_not_available.png"}},{"type":"Feature","geometry":{"type":"Point","coordinates":[-8.6557940000766,40.6433670008485]},"properties":{"nome":"AVEIRO ROSSIO APARTMENTS STUDIO 2","imgurl":"https:\/\/upload.wikimedia.org\/wikipedia\/commons\/d\/d1\/Image_not_available.png"}},{"type":"Feature","geometry":{"type":"Point","coordinates":[-8.7507295717783,40.6140580382732]},"properties":{"nome":"DUNAS DA BELA VISTA","imgurl":"https:\/\/upload.wikimedia.org\/wikipedia\/commons\/d\/d1\/Image_not_available.png"}},{"type":"Feature","geometry":{"type":"Point","coordinates":[-8.74247281823541,40.6428446825096]},"properties":{"nome":"POOL & TENNIS BEACH HOUSE","imgurl":"https:\/\/upload.wikimedia.org\/wikipedia\/commons\/d\/d1\/Image_not_available.png"}},{"type":"Feature","geometry":{"type":"Point","coordinates":[-8.64574100044442,40.6231980008049]},"properties":{"nome":"O S\u00f3t\u00e3o do Av\u00f4","imgurl":"https:\/\/upload.wikimedia.org\/wikipedia\/commons\/d\/d1\/Image_not_available.png"}},{"type":"Feature","geometry":{"type":"Point","coordinates":[-8.74984399999478,40.6105800004897]},"properties":{"nome":"APARTAMENTOS COSTA NOVA","imgurl":"https:\/\/upload.wikimedia.org\/wikipedia\/commons\/d\/d1\/Image_not_available.png"}},{"type":"Feature","geometry":{"type":"Point","coordinates":[-8.74506049985295,40.6415310012794]},"properties":{"nome":"BURRA.PT","imgurl":"https:\/\/upload.wikimedia.org\/wikipedia\/commons\/d\/d1\/Image_not_available.png"}},{"type":"Feature","geometry":{"type":"Point","coordinates":[-8.76662899951898,40.5614310010499]},"properties":{"nome":"Praia da Vagueira","imgurl":"https:\/\/upload.wikimedia.org\/wikipedia\/commons\/d\/d1\/Image_not_available.png"}},{"type":"Feature","geometry":{"type":"Point","coordinates":[-8.74606727952111,40.6412371158472]},"properties":{"nome":"BARRA BEACH HOME","imgurl":"https:\/\/upload.wikimedia.org\/wikipedia\/commons\/d\/d1\/Image_not_available.png"}},{"type":"Feature","geometry":{"type":"Point","coordinates":[-8.64489049978794,40.6470210011784]},"properties":{"nome":"Lovely Apartment Aveiro","imgurl":"https:\/\/upload.wikimedia.org\/wikipedia\/commons\/d\/d1\/Image_not_available.png"}},{"type":"Feature","geometry":{"type":"Point","coordinates":[-8.74715300044147,40.6427460011531]},"properties":{"nome":"The Seagull Beach House","imgurl":"https:\/\/upload.wikimedia.org\/wikipedia\/commons\/d\/d1\/Image_not_available.png"}},{"type":"Feature","geometry":{"type":"Point","coordinates":[-8.65668115020006,40.6398780107081]},"properties":{"nome":"Alboi Loft","imgurl":"https:\/\/upload.wikimedia.org\/wikipedia\/commons\/d\/d1\/Image_not_available.png"}},{"type":"Feature","geometry":{"type":"Point","coordinates":[-8.70654049972141,40.7180220009916]},"properties":{"nome":"casa dos Sinos ","imgurl":"https:\/\/upload.wikimedia.org\/wikipedia\/commons\/d\/d1\/Image_not_available.png"}},{"type":"Feature","geometry":{"type":"Point","coordinates":[-8.67023450001552,40.6014360009149]},"properties":{"nome":"GALERA","imgurl":"https:\/\/upload.wikimedia.org\/wikipedia\/commons\/d\/d1\/Image_not_available.png"}},{"type":"Feature","geometry":{"type":"Point","coordinates":[-8.68828396903197,40.6276291239239]},"properties":{"nome":"CASA DOS PINGOS DE MEL","imgurl":"https:\/\/upload.wikimedia.org\/wikipedia\/commons\/d\/d1\/Image_not_available.png"}},{"type":"Feature","geometry":{"type":"Point","coordinates":[-8.65323182162999,40.6419264160157]},"properties":{"nome":"CASA JOS\u00c9 ESTEV\u00c3O","imgurl":"https:\/\/upload.wikimedia.org\/wikipedia\/commons\/d\/d1\/Image_not_available.png"}},{"type":"Feature","geometry":{"type":"Point","coordinates":[-8.65323182162999,40.6419264160157]},"properties":{"nome":"AVEIRO BY JOS\u00c9 ESTEV\u00c3O","imgurl":"https:\/\/upload.wikimedia.org\/wikipedia\/commons\/d\/d1\/Image_not_available.png"}},{"type":"Feature","geometry":{"type":"Point","coordinates":[-8.74296394426923,40.6410265113478]},"properties":{"nome":"AVERMAR","imgurl":"https:\/\/upload.wikimedia.org\/wikipedia\/commons\/d\/d1\/Image_not_available.png"}},{"type":"Feature","geometry":{"type":"Point","coordinates":[-8.64918949178466,40.6425771621961]},"properties":{"nome":"Quartos d'Anjo","imgurl":"https:\/\/upload.wikimedia.org\/wikipedia\/commons\/d\/d1\/Image_not_available.png"}},{"type":"Feature","geometry":{"type":"Point","coordinates":[-8.65526932196692,40.644452295657]},"properties":{"nome":"Up House","imgurl":"https:\/\/upload.wikimedia.org\/wikipedia\/commons\/d\/d1\/Image_not_available.png"}},{"type":"Feature","geometry":{"type":"Point","coordinates":[-8.64333799987289,40.8534810014364]},"properties":{"nome":"La Roseraie","imgurl":"https:\/\/upload.wikimedia.org\/wikipedia\/commons\/d\/d1\/Image_not_available.png"}},{"type":"Feature","geometry":{"type":"Point","coordinates":[-8.74705049997262,40.6370520007574]},"properties":{"nome":"COPACABANA","imgurl":"https:\/\/upload.wikimedia.org\/wikipedia\/commons\/d\/d1\/Image_not_available.png"}},{"type":"Feature","geometry":{"type":"Point","coordinates":[-8.75253661292237,40.6175738174185]},"properties":{"nome":"CASA DA PRAIA - COSTA NOVA","imgurl":"https:\/\/upload.wikimedia.org\/wikipedia\/commons\/d\/d1\/Image_not_available.png"}},{"type":"Feature","geometry":{"type":"Point","coordinates":[-8.74919137214425,40.6193816287262]},"properties":{"nome":"APARTAMENTOS COSTA NOVA","imgurl":"https:\/\/upload.wikimedia.org\/wikipedia\/commons\/d\/d1\/Image_not_available.png"}},{"type":"Feature","geometry":{"type":"Point","coordinates":[-8.65425317646362,40.6425265149926]},"properties":{"nome":"Enjoy Aveiro Apartment","imgurl":"https:\/\/upload.wikimedia.org\/wikipedia\/commons\/d\/d1\/Image_not_available.png"}},{"type":"Feature","geometry":{"type":"Point","coordinates":[-8.65327652898503,40.6428065413405]},"properties":{"nome":"Lovely Aveiro Center Apartment","imgurl":"https:\/\/upload.wikimedia.org\/wikipedia\/commons\/d\/d1\/Image_not_available.png"}},{"type":"Feature","geometry":{"type":"Point","coordinates":[-8.74710350057437,40.6419990007796]},"properties":{"nome":"SUNSET HOUSE","imgurl":"https:\/\/upload.wikimedia.org\/wikipedia\/commons\/d\/d1\/Image_not_available.png"}},{"type":"Feature","geometry":{"type":"Point","coordinates":[-8.65529082134662,40.6404370067588]},"properties":{"nome":"Casa da Clara II","imgurl":"https:\/\/upload.wikimedia.org\/wikipedia\/commons\/d\/d1\/Image_not_available.png"}},{"type":"Feature","geometry":{"type":"Point","coordinates":[-8.60204896174266,40.8499950007558]},"properties":{"nome":"ALOJAMENTO DA CARLOTA","imgurl":"https:\/\/upload.wikimedia.org\/wikipedia\/commons\/d\/d1\/Image_not_available.png"}},{"type":"Feature","geometry":{"type":"Point","coordinates":[-8.64404000002975,40.6429530012391]},"properties":{"nome":"Aveiro Perfect Spot","imgurl":"https:\/\/upload.wikimedia.org\/wikipedia\/commons\/d\/d1\/Image_not_available.png"}},{"type":"Feature","geometry":{"type":"Point","coordinates":[-8.76615199949302,40.5615660007382]},"properties":{"nome":"Laura Guest House","imgurl":"https:\/\/upload.wikimedia.org\/wikipedia\/commons\/d\/d1\/Image_not_available.png"}},{"type":"Feature","geometry":{"type":"Point","coordinates":[-8.65748376616033,40.639687870126]},"properties":{"nome":"Jardim \u00e0 Vista","imgurl":"https:\/\/upload.wikimedia.org\/wikipedia\/commons\/d\/d1\/Image_not_available.png"}},{"type":"Feature","geometry":{"type":"Point","coordinates":[-8.70715249946658,40.7572620003482]},"properties":{"nome":"Mikes Beach House","imgurl":"https:\/\/upload.wikimedia.org\/wikipedia\/commons\/d\/d1\/Image_not_available.png"}},{"type":"Feature","geometry":{"type":"Point","coordinates":[-8.65445751174972,40.642253954086]},"properties":{"nome":"1","imgurl":"https:\/\/upload.wikimedia.org\/wikipedia\/commons\/d\/d1\/Image_not_available.png"}},{"type":"Feature","geometry":{"type":"Point","coordinates":[-8.6417160503049,40.6441021435369]},"properties":{"nome":"SOLDOURO GUESTHOUSE","imgurl":"https:\/\/upload.wikimedia.org\/wikipedia\/commons\/d\/d1\/Image_not_available.png"}},{"type":"Feature","geometry":{"type":"Point","coordinates":[-8.74977069926425,40.6218562604306]},"properties":{"nome":"Empreendimento Biarritz","imgurl":"https:\/\/upload.wikimedia.org\/wikipedia\/commons\/d\/d1\/Image_not_available.png"}},{"type":"Feature","geometry":{"type":"Point","coordinates":[-8.70395299956355,40.7574510013376]},"properties":{"nome":"Casa do Chapim ","imgurl":"https:\/\/upload.wikimedia.org\/wikipedia\/commons\/d\/d1\/Image_not_available.png"}},{"type":"Feature","geometry":{"type":"Point","coordinates":[-8.65605050053125,40.6432770007369]},"properties":{"nome":"Canal Apartment Aveiro","imgurl":"https:\/\/upload.wikimedia.org\/wikipedia\/commons\/d\/d1\/Image_not_available.png"}},{"type":"Feature","geometry":{"type":"Point","coordinates":[-8.74063453368576,40.5938357046685]},"properties":{"nome":"BEAUTIFUL VIEW","imgurl":"https:\/\/upload.wikimedia.org\/wikipedia\/commons\/d\/d1\/Image_not_available.png"}},{"type":"Feature","geometry":{"type":"Point","coordinates":[-8.67327134017342,40.8727103893653]},"properties":{"nome":"Casas da Praia","imgurl":"https:\/\/upload.wikimedia.org\/wikipedia\/commons\/d\/d1\/Image_not_available.png"}},{"type":"Feature","geometry":{"type":"Point","coordinates":[-8.66522599974276,40.872498001536]},"properties":{"nome":"PINE BEACH RESIDENCES","imgurl":"https:\/\/upload.wikimedia.org\/wikipedia\/commons\/d\/d1\/Image_not_available.png"}},{"type":"Feature","geometry":{"type":"Point","coordinates":[-8.66522599974276,40.872498001536]},"properties":{"nome":"PINE BEACH RESIDENCES","imgurl":"https:\/\/upload.wikimedia.org\/wikipedia\/commons\/d\/d1\/Image_not_available.png"}},{"type":"Feature","geometry":{"type":"Point","coordinates":[-8.66486034769288,40.8713304968659]},"properties":{"nome":"URBANIZA\u00c7\u00c3O PINHAL DO FURADOURO","imgurl":"https:\/\/upload.wikimedia.org\/wikipedia\/commons\/d\/d1\/Image_not_available.png"}},{"type":"Feature","geometry":{"type":"Point","coordinates":[-8.66533966267736,40.871412270977]},"properties":{"nome":"Les Transats Du Furadouro","imgurl":"https:\/\/upload.wikimedia.org\/wikipedia\/commons\/d\/d1\/Image_not_available.png"}},{"type":"Feature","geometry":{"type":"Point","coordinates":[-8.65345072040347,40.6394594427717]},"properties":{"nome":"CENTRAL TILED APARTMENT","imgurl":"https:\/\/upload.wikimedia.org\/wikipedia\/commons\/d\/d1\/Image_not_available.png"}},{"type":"Feature","geometry":{"type":"Point","coordinates":[-8.65034780466483,40.6437415778579]},"properties":{"nome":"Gravito 31","imgurl":"https:\/\/upload.wikimedia.org\/wikipedia\/commons\/d\/d1\/Image_not_available.png"}},{"type":"Feature","geometry":{"type":"Point","coordinates":[-8.75165753865332,40.6178853668493]},"properties":{"nome":"FLAT MAR","imgurl":"https:\/\/upload.wikimedia.org\/wikipedia\/commons\/d\/d1\/Image_not_available.png"}},{"type":"Feature","geometry":{"type":"Point","coordinates":[-8.62387452241211,40.8595871854861]},"properties":{"nome":"Aqua Charm Apartments","imgurl":"https:\/\/upload.wikimedia.org\/wikipedia\/commons\/d\/d1\/Image_not_available.png"}},{"type":"Feature","geometry":{"type":"Point","coordinates":[-8.63709615403752,40.639802868781]},"properties":{"nome":"AVEIROAPARTEMENT","imgurl":"https:\/\/upload.wikimedia.org\/wikipedia\/commons\/d\/d1\/Image_not_available.png"}},{"type":"Feature","geometry":{"type":"Point","coordinates":[-8.65754157095222,40.6423005825869]},"properties":{"nome":"HOME AVEIRO RIA","imgurl":"https:\/\/upload.wikimedia.org\/wikipedia\/commons\/d\/d1\/Image_not_available.png"}},{"type":"Feature","geometry":{"type":"Point","coordinates":[-8.675742143786,40.8748782471235]},"properties":{"nome":"Marrafa's Appartment","imgurl":"https:\/\/upload.wikimedia.org\/wikipedia\/commons\/d\/d1\/Image_not_available.png"}},{"type":"Feature","geometry":{"type":"Point","coordinates":[-8.76494149988473,40.5644550007421]},"properties":{"nome":"Vagueira Guest House","imgurl":"https:\/\/upload.wikimedia.org\/wikipedia\/commons\/d\/d1\/Image_not_available.png"}},{"type":"Feature","geometry":{"type":"Point","coordinates":[-8.65479066185432,40.6426114856865]},"properties":{"nome":"AVEIRO'S DOCK APARTMENTS ","imgurl":"https:\/\/upload.wikimedia.org\/wikipedia\/commons\/d\/d1\/Image_not_available.png"}},{"type":"Feature","geometry":{"type":"Point","coordinates":[-8.74707750063511,40.6422450008266]},"properties":{"nome":"A nossa praia","imgurl":"https:\/\/upload.wikimedia.org\/wikipedia\/commons\/d\/d1\/Image_not_available.png"}},{"type":"Feature","geometry":{"type":"Point","coordinates":[-8.66522599974276,40.872498001536]},"properties":{"nome":"Pine Beach Spot","imgurl":"https:\/\/upload.wikimedia.org\/wikipedia\/commons\/d\/d1\/Image_not_available.png"}},{"type":"Feature","geometry":{"type":"Point","coordinates":[-8.67698551005559,40.8697098865341]},"properties":{"nome":"APARTAMENTO BARRAMARES","imgurl":"https:\/\/upload.wikimedia.org\/wikipedia\/commons\/d\/d1\/Image_not_available.png"}},{"type":"Feature","geometry":{"type":"Point","coordinates":[-8.67209760501647,40.8734125886681]},"properties":{"nome":"Apartamento Furadouro registo 04351","imgurl":"https:\/\/upload.wikimedia.org\/wikipedia\/commons\/d\/d1\/Image_not_available.png"}},{"type":"Feature","geometry":{"type":"Point","coordinates":[-8.6417160503049,40.6441021435369]},"properties":{"nome":"SOLDOURO GUESTHOUSE","imgurl":"https:\/\/upload.wikimedia.org\/wikipedia\/commons\/d\/d1\/Image_not_available.png"}},{"type":"Feature","geometry":{"type":"Point","coordinates":[-8.69140250018518,40.777224001087]},"properties":{"nome":"Casa da Torreira","imgurl":"https:\/\/upload.wikimedia.org\/wikipedia\/commons\/d\/d1\/Image_not_available.png"}},{"type":"Feature","geometry":{"type":"Point","coordinates":[-8.76955148863283,40.5618664592725]},"properties":{"nome":"VAGUEIMAR","imgurl":"https:\/\/upload.wikimedia.org\/wikipedia\/commons\/d\/d1\/Image_not_available.png"}},{"type":"Feature","geometry":{"type":"Point","coordinates":[-8.74710350057437,40.6419990007796]},"properties":{"nome":"WELCOME BARRA AP","imgurl":"https:\/\/upload.wikimedia.org\/wikipedia\/commons\/d\/d1\/Image_not_available.png"}},{"type":"Feature","geometry":{"type":"Point","coordinates":[-8.65479066185432,40.6426114856865]},"properties":{"nome":"AVEIRO'S DOCK APARTMENTS G","imgurl":"https:\/\/upload.wikimedia.org\/wikipedia\/commons\/d\/d1\/Image_not_available.png"}},{"type":"Feature","geometry":{"type":"Point","coordinates":[-8.65479066185432,40.6426114856865]},"properties":{"nome":"AVEIRO'S DOCK  APARTMENTS ","imgurl":"https:\/\/upload.wikimedia.org\/wikipedia\/commons\/d\/d1\/Image_not_available.png"}},{"type":"Feature","geometry":{"type":"Point","coordinates":[-8.76992849987947,40.5611010008928]},"properties":{"nome":"P\u00e1ra-Raios","imgurl":"https:\/\/upload.wikimedia.org\/wikipedia\/commons\/d\/d1\/Image_not_available.png"}},{"type":"Feature","geometry":{"type":"Point","coordinates":[-8.63807722392225,40.6382760005018]},"properties":{"nome":"MIRADOR","imgurl":"https:\/\/upload.wikimedia.org\/wikipedia\/commons\/d\/d1\/Image_not_available.png"}},{"type":"Feature","geometry":{"type":"Point","coordinates":[-8.67323983984966,40.8727013896531]},"properties":{"nome":"Casas da Praia","imgurl":"https:\/\/upload.wikimedia.org\/wikipedia\/commons\/d\/d1\/Image_not_available.png"}},{"type":"Feature","geometry":{"type":"Point","coordinates":[-8.66522599974276,40.872498001536]},"properties":{"nome":"PINE BEACH RESIDENCES","imgurl":"https:\/\/upload.wikimedia.org\/wikipedia\/commons\/d\/d1\/Image_not_available.png"}},{"type":"Feature","geometry":{"type":"Point","coordinates":[-8.66522599974276,40.872498001536]},"properties":{"nome":"PINE BEACH RESIDENCES","imgurl":"https:\/\/upload.wikimedia.org\/wikipedia\/commons\/d\/d1\/Image_not_available.png"}},{"type":"Feature","geometry":{"type":"Point","coordinates":[-8.65470160197871,40.8436033041069]},"properties":{"nome":"Moradia","imgurl":"https:\/\/upload.wikimedia.org\/wikipedia\/commons\/d\/d1\/Image_not_available.png"}},{"type":"Feature","geometry":{"type":"Point","coordinates":[-8.69876570310823,40.764544220241]},"properties":{"nome":"BW AL Torreira","imgurl":"https:\/\/upload.wikimedia.org\/wikipedia\/commons\/d\/d1\/Image_not_available.png"}},{"type":"Feature","geometry":{"type":"Point","coordinates":[-8.66142284903679,40.8671117614471]},"properties":{"nome":"Casa da Praia","imgurl":"https:\/\/upload.wikimedia.org\/wikipedia\/commons\/d\/d1\/Image_not_available.png"}},{"type":"Feature","geometry":{"type":"Point","coordinates":[-8.70654049972141,40.7180220009916]},"properties":{"nome":"Beach House Babylon","imgurl":"https:\/\/upload.wikimedia.org\/wikipedia\/commons\/d\/d1\/Image_not_available.png"}},{"type":"Feature","geometry":{"type":"Point","coordinates":[-8.76831199949201,40.560612000926]},"properties":{"nome":"IBEROVAGUEIRA","imgurl":"https:\/\/upload.wikimedia.org\/wikipedia\/commons\/d\/d1\/Image_not_available.png"}},{"type":"Feature","geometry":{"type":"Point","coordinates":[-8.70072892894085,40.7607352387981]},"properties":{"nome":"Casa da Beira Ria ","imgurl":"https:\/\/upload.wikimedia.org\/wikipedia\/commons\/d\/d1\/Image_not_available.png"}},{"type":"Feature","geometry":{"type":"Point","coordinates":[-8.62377582630847,40.8596068727296]},"properties":{"nome":"Aqua Charm Apartements","imgurl":"https:\/\/upload.wikimedia.org\/wikipedia\/commons\/d\/d1\/Image_not_available.png"}},{"type":"Feature","geometry":{"type":"Point","coordinates":[-8.65400750070812,40.6383540010415]},"properties":{"nome":"Resid\u00eancia Blue","imgurl":"https:\/\/upload.wikimedia.org\/wikipedia\/commons\/d\/d1\/Image_not_available.png"}},{"type":"Feature","geometry":{"type":"Point","coordinates":[-8.63981792178765,40.6457264112429]},"properties":{"nome":"Casa da Esta\u00e7\u00e3o ","imgurl":"https:\/\/upload.wikimedia.org\/wikipedia\/commons\/d\/d1\/Image_not_available.png"}},{"type":"Feature","geometry":{"type":"Point","coordinates":[-8.75105100066503,40.6155150003142]},"properties":{"nome":"CASA DO BICO","imgurl":"https:\/\/upload.wikimedia.org\/wikipedia\/commons\/d\/d1\/Image_not_available.png"}},{"type":"Feature","geometry":{"type":"Point","coordinates":[-8.65525399940313,40.6415760011642]},"properties":{"nome":"River House Hostel - Aveiro","imgurl":"https:\/\/upload.wikimedia.org\/wikipedia\/commons\/d\/d1\/Image_not_available.png"}},{"type":"Feature","geometry":{"type":"Point","coordinates":[-8.64397154571014,40.642962431542]},"properties":{"nome":"Les Canaux","imgurl":"https:\/\/upload.wikimedia.org\/wikipedia\/commons\/d\/d1\/Image_not_available.png"}},{"type":"Feature","geometry":{"type":"Point","coordinates":[-8.65756249990173,40.6392630010566]},"properties":{"nome":"Home Sweet Home Ria de Aveiro","imgurl":"https:\/\/upload.wikimedia.org\/wikipedia\/commons\/d\/d1\/Image_not_available.png"}},{"type":"Feature","geometry":{"type":"Point","coordinates":[-8.67444799665172,40.8717370677113]},"properties":{"nome":"Nature & Sea, Guest House","imgurl":"https:\/\/upload.wikimedia.org\/wikipedia\/commons\/d\/d1\/Image_not_available.png"}},{"type":"Feature","geometry":{"type":"Point","coordinates":[-8.74983257971258,40.6152827165785]},"properties":{"nome":"M","imgurl":"https:\/\/upload.wikimedia.org\/wikipedia\/commons\/d\/d1\/Image_not_available.png"}},{"type":"Feature","geometry":{"type":"Point","coordinates":[-8.7402245030642,40.638731564629]},"properties":{"nome":"CASA DA BARRA","imgurl":"https:\/\/upload.wikimedia.org\/wikipedia\/commons\/d\/d1\/Image_not_available.png"}},{"type":"Feature","geometry":{"type":"Point","coordinates":[-8.75075733241551,40.6140193208014]},"properties":{"nome":"PALHEIRO DA BELA VISTA","imgurl":"https:\/\/upload.wikimedia.org\/wikipedia\/commons\/d\/d1\/Image_not_available.png"}},{"type":"Feature","geometry":{"type":"Point","coordinates":[-8.75110949985465,40.616973000472]},"properties":{"nome":"Casa T\u00edpica Costa Nova","imgurl":"https:\/\/upload.wikimedia.org\/wikipedia\/commons\/d\/d1\/Image_not_available.png"}},{"type":"Feature","geometry":{"type":"Point","coordinates":[-8.67603149922383,40.8749624234414]},"properties":{"nome":"Ocean Breeze","imgurl":"https:\/\/upload.wikimedia.org\/wikipedia\/commons\/d\/d1\/Image_not_available.png"}},{"type":"Feature","geometry":{"type":"Point","coordinates":[-8.70199152185245,40.7606868689183]},"properties":{"nome":"Mikes Beach Apartment","imgurl":"https:\/\/upload.wikimedia.org\/wikipedia\/commons\/d\/d1\/Image_not_available.png"}},{"type":"Feature","geometry":{"type":"Point","coordinates":[-8.64887300003871,40.6484250004437]},"properties":{"nome":"Maison Bleue","imgurl":"https:\/\/upload.wikimedia.org\/wikipedia\/commons\/d\/d1\/Image_not_available.png"}},{"type":"Feature","geometry":{"type":"Point","coordinates":[-8.70036215309854,40.7612827832739]},"properties":{"nome":"Jo\u00e3o Ant\u00f3nio Pereira Migueis Sardo","imgurl":"https:\/\/upload.wikimedia.org\/wikipedia\/commons\/d\/d1\/Image_not_available.png"}},{"type":"Feature","geometry":{"type":"Point","coordinates":[-8.65782107995626,40.639957156605]},"properties":{"nome":"CASA DO SAL TERRACE","imgurl":"https:\/\/upload.wikimedia.org\/wikipedia\/commons\/d\/d1\/Image_not_available.png"}},{"type":"Feature","geometry":{"type":"Point","coordinates":[-8.75285899941321,40.5840750004532]},"properties":{"nome":"Quinta de S. Miguel","imgurl":"https:\/\/upload.wikimedia.org\/wikipedia\/commons\/d\/d1\/Image_not_available.png"}},{"type":"Feature","geometry":{"type":"Point","coordinates":[-8.7598028265408,40.5612667365255]},"properties":{"nome":"Casa Carmo","imgurl":"https:\/\/upload.wikimedia.org\/wikipedia\/commons\/d\/d1\/Image_not_available.png"}},{"type":"Feature","geometry":{"type":"Point","coordinates":[-8.70654049972141,40.7180220009916]},"properties":{"nome":"CASA DOS AMIGOS","imgurl":"https:\/\/upload.wikimedia.org\/wikipedia\/commons\/d\/d1\/Image_not_available.png"}},{"type":"Feature","geometry":{"type":"Point","coordinates":[-8.66522599974276,40.872498001536]},"properties":{"nome":"SUSANA A. MENDON\u00c7A SANTOS","imgurl":"https:\/\/upload.wikimedia.org\/wikipedia\/commons\/d\/d1\/Image_not_available.png"}},{"type":"Feature","geometry":{"type":"Point","coordinates":[-8.65152785677487,40.6425190102357]},"properties":{"nome":"Bird's House","imgurl":"https:\/\/upload.wikimedia.org\/wikipedia\/commons\/d\/d1\/Image_not_available.png"}},{"type":"Feature","geometry":{"type":"Point","coordinates":[-8.76553549918826,40.5630510004971]},"properties":{"nome":" Vagueira Surf Camp","imgurl":"https:\/\/upload.wikimedia.org\/wikipedia\/commons\/d\/d1\/Image_not_available.png"}},{"type":"Feature","geometry":{"type":"Point","coordinates":[-8.75986999986279,40.5615660007382]},"properties":{"nome":"Suzanne Sim\u00f5es dos Santos","imgurl":"https:\/\/upload.wikimedia.org\/wikipedia\/commons\/d\/d1\/Image_not_available.png"}},{"type":"Feature","geometry":{"type":"Point","coordinates":[-8.64922098851516,40.6425384489858]},"properties":{"nome":"Aveiro Panoramic","imgurl":"https:\/\/upload.wikimedia.org\/wikipedia\/commons\/d\/d1\/Image_not_available.png"}},{"type":"Feature","geometry":{"type":"Point","coordinates":[-8.64357924873062,40.6436809873972]},"properties":{"nome":"AVEIRO HOME","imgurl":"https:\/\/upload.wikimedia.org\/wikipedia\/commons\/d\/d1\/Image_not_available.png"}},{"type":"Feature","geometry":{"type":"Point","coordinates":[-8.70103699987934,40.762428000479]},"properties":{"nome":"Entre a Ria e o Mar","imgurl":"https:\/\/upload.wikimedia.org\/wikipedia\/commons\/d\/d1\/Image_not_available.png"}},{"type":"Feature","geometry":{"type":"Point","coordinates":[-8.75215350031831,40.618197000744]},"properties":{"nome":"CASA DO BARQUINHO","imgurl":"https:\/\/upload.wikimedia.org\/wikipedia\/commons\/d\/d1\/Image_not_available.png"}},{"type":"Feature","geometry":{"type":"Point","coordinates":[-8.75227595775951,40.618153839133]},"properties":{"nome":"JUNTO AO MAR E \u00c0 RIA... COSTA NOVA!","imgurl":"https:\/\/upload.wikimedia.org\/wikipedia\/commons\/d\/d1\/Image_not_available.png"}},{"type":"Feature","geometry":{"type":"Point","coordinates":[-8.66860546812982,40.6027222605081]},"properties":{"nome":"GALERA AMIGOS","imgurl":"https:\/\/upload.wikimedia.org\/wikipedia\/commons\/d\/d1\/Image_not_available.png"}},{"type":"Feature","geometry":{"type":"Point","coordinates":[-8.59752477737556,40.8357758255377]},"properties":{"nome":"Port-u-Gral Our House","imgurl":"https:\/\/upload.wikimedia.org\/wikipedia\/commons\/d\/d1\/Image_not_available.png"}},{"type":"Feature","geometry":{"type":"Point","coordinates":[-8.66522599974276,40.872498001536]},"properties":{"nome":"Casa Praia Furadouro","imgurl":"https:\/\/upload.wikimedia.org\/wikipedia\/commons\/d\/d1\/Image_not_available.png"}},{"type":"Feature","geometry":{"type":"Point","coordinates":[-8.74984399999478,40.6105800004897]},"properties":{"nome":"HOUSE WITH LAGOON VIEW","imgurl":"https:\/\/upload.wikimedia.org\/wikipedia\/commons\/d\/d1\/Image_not_available.png"}},{"type":"Feature","geometry":{"type":"Point","coordinates":[-8.74619999931611,40.6345050004425]},"properties":{"nome":"BY THE SEA - 3 BEDROOM","imgurl":"https:\/\/upload.wikimedia.org\/wikipedia\/commons\/d\/d1\/Image_not_available.png"}},{"type":"Feature","geometry":{"type":"Point","coordinates":[-8.6527571599187,40.6392104085939]},"properties":{"nome":"RETRO APARTMENT","imgurl":"https:\/\/upload.wikimedia.org\/wikipedia\/commons\/d\/d1\/Image_not_available.png"}},{"type":"Feature","geometry":{"type":"Point","coordinates":[-8.56382109553815,40.6257788686745]},"properties":{"nome":"Aveiro Central It\u00b4s ALL There","imgurl":"https:\/\/upload.wikimedia.org\/wikipedia\/commons\/d\/d1\/Image_not_available.png"}},{"type":"Feature","geometry":{"type":"Point","coordinates":[-8.66939250370983,40.8198823566202]},"properties":{"nome":"Ria Surf House","imgurl":"https:\/\/upload.wikimedia.org\/wikipedia\/commons\/d\/d1\/Image_not_available.png"}},{"type":"Feature","geometry":{"type":"Point","coordinates":[-8.53190289707459,40.6698704452049]},"properties":{"nome":"Casa do Chafariz do Font\u00e3o","imgurl":"https:\/\/upload.wikimedia.org\/wikipedia\/commons\/d\/d1\/Image_not_available.png"}},{"type":"Feature","geometry":{"type":"Point","coordinates":[-8.67290128098878,40.8725763642388]},"properties":{"nome":"Furadouro Surf Camp","imgurl":"https:\/\/upload.wikimedia.org\/wikipedia\/commons\/d\/d1\/Image_not_available.png"}},{"type":"Feature","geometry":{"type":"Point","coordinates":[-8.65392398882776,40.621709969031]},"properties":{"nome":"Casa Amarela","imgurl":"https:\/\/upload.wikimedia.org\/wikipedia\/commons\/d\/d1\/Image_not_available.png"}},{"type":"Feature","geometry":{"type":"Point","coordinates":[-8.70654049972141,40.7180220009916]},"properties":{"nome":"AtticoTorreira","imgurl":"https:\/\/upload.wikimedia.org\/wikipedia\/commons\/d\/d1\/Image_not_available.png"}},{"type":"Feature","geometry":{"type":"Point","coordinates":[-8.64474649984788,40.863147001492]},"properties":{"nome":"Apartamento do Furadouro","imgurl":"https:\/\/upload.wikimedia.org\/wikipedia\/commons\/d\/d1\/Image_not_available.png"}},{"type":"Feature","geometry":{"type":"Point","coordinates":[-8.65031361209015,40.6455195233615]},"properties":{"nome":"Flat4you Aveiro","imgurl":"https:\/\/upload.wikimedia.org\/wikipedia\/commons\/d\/d1\/Image_not_available.png"}},{"type":"Feature","geometry":{"type":"Point","coordinates":[-8.65323182162999,40.6419264160157]},"properties":{"nome":"SMART LIVING","imgurl":"https:\/\/upload.wikimedia.org\/wikipedia\/commons\/d\/d1\/Image_not_available.png"}},{"type":"Feature","geometry":{"type":"Point","coordinates":[-8.66522599974276,40.872498001536]},"properties":{"nome":"PINE BEACH RESIDENCES","imgurl":"https:\/\/upload.wikimedia.org\/wikipedia\/commons\/d\/d1\/Image_not_available.png"}},{"type":"Feature","geometry":{"type":"Point","coordinates":[-8.75253661292237,40.6175738174185]},"properties":{"nome":"VASCO DANIEL PINTO DIOGO","imgurl":"https:\/\/upload.wikimedia.org\/wikipedia\/commons\/d\/d1\/Image_not_available.png"}},{"type":"Feature","geometry":{"type":"Point","coordinates":[-8.74320299944105,40.6401300014615]},"properties":{"nome":"CASA DO PINHAL","imgurl":"https:\/\/upload.wikimedia.org\/wikipedia\/commons\/d\/d1\/Image_not_available.png"}},{"type":"Feature","geometry":{"type":"Point","coordinates":[-8.65395349938314,40.6441140009076]},"properties":{"nome":"casa clara","imgurl":"https:\/\/upload.wikimedia.org\/wikipedia\/commons\/d\/d1\/Image_not_available.png"}},{"type":"Feature","geometry":{"type":"Point","coordinates":[-8.49848630242894,40.6269463181324]},"properties":{"nome":"Quinta","imgurl":"https:\/\/upload.wikimedia.org\/wikipedia\/commons\/d\/d1\/Image_not_available.png"}},{"type":"Feature","geometry":{"type":"Point","coordinates":[-8.67475711053424,40.874188883034]},"properties":{"nome":"Casa 1","imgurl":"https:\/\/upload.wikimedia.org\/wikipedia\/commons\/d\/d1\/Image_not_available.png"}},{"type":"Feature","geometry":{"type":"Point","coordinates":[-8.65782107995626,40.639957156605]},"properties":{"nome":"CASA do SAL PREMIUM","imgurl":"https:\/\/upload.wikimedia.org\/wikipedia\/commons\/d\/d1\/Image_not_available.png"}},{"type":"Feature","geometry":{"type":"Point","coordinates":[-8.65756249990173,40.6392630010566]},"properties":{"nome":"FEELTHELAND RIA RESIDENCE","imgurl":"https:\/\/upload.wikimedia.org\/wikipedia\/commons\/d\/d1\/Image_not_available.png"}},{"type":"Feature","geometry":{"type":"Point","coordinates":[-8.62655913404543,40.6601875117455]},"properties":{"nome":"Casa 3 Am\u00e9lias","imgurl":"https:\/\/upload.wikimedia.org\/wikipedia\/commons\/d\/d1\/Image_not_available.png"}},{"type":"Feature","geometry":{"type":"Point","coordinates":[-8.62494191051417,40.8610225113125]},"properties":{"nome":"At Art\u00b4s Home - Restful Guest House","imgurl":"https:\/\/upload.wikimedia.org\/wikipedia\/commons\/d\/d1\/Image_not_available.png"}},{"type":"Feature","geometry":{"type":"Point","coordinates":[-8.63954664135161,40.6463160395156]},"properties":{"nome":"Casa da Esta\u00e7\u00e3o","imgurl":"https:\/\/upload.wikimedia.org\/wikipedia\/commons\/d\/d1\/Image_not_available.png"}},{"type":"Feature","geometry":{"type":"Point","coordinates":[-8.74402649943504,40.6403100011882]},"properties":{"nome":"CASA GOMES","imgurl":"https:\/\/upload.wikimedia.org\/wikipedia\/commons\/d\/d1\/Image_not_available.png"}},{"type":"Feature","geometry":{"type":"Point","coordinates":[-8.75215350031831,40.618197000744]},"properties":{"nome":"Capuchinho","imgurl":"https:\/\/upload.wikimedia.org\/wikipedia\/commons\/d\/d1\/Image_not_available.png"}},{"type":"Feature","geometry":{"type":"Point","coordinates":[-8.65722562268701,40.6431384422614]},"properties":{"nome":"Cozi Apartment in Aveiro Center","imgurl":"https:\/\/upload.wikimedia.org\/wikipedia\/commons\/d\/d1\/Image_not_available.png"}},{"type":"Feature","geometry":{"type":"Point","coordinates":[-8.64791337832971,40.6448843369633]},"properties":{"nome":"Edif\u00edcio Pompeu Figueiredo","imgurl":"https:\/\/upload.wikimedia.org\/wikipedia\/commons\/d\/d1\/Image_not_available.png"}},{"type":"Feature","geometry":{"type":"Point","coordinates":[-8.67757491627306,40.8700215892366]},"properties":{"nome":"Barramares","imgurl":"https:\/\/upload.wikimedia.org\/wikipedia\/commons\/d\/d1\/Image_not_available.png"}},{"type":"Feature","geometry":{"type":"Point","coordinates":[-8.65096544672831,40.6433868905855]},"properties":{"nome":"Green House","imgurl":"https:\/\/upload.wikimedia.org\/wikipedia\/commons\/d\/d1\/Image_not_available.png"}},{"type":"Feature","geometry":{"type":"Point","coordinates":[-8.64756031976178,40.6360754308783]},"properties":{"nome":"LOJA S\u00c3O MARTINHO 21","imgurl":"https:\/\/upload.wikimedia.org\/wikipedia\/commons\/d\/d1\/Image_not_available.png"}},{"type":"Feature","geometry":{"type":"Point","coordinates":[-8.6361988897823,40.6369549032599]},"properties":{"nome":"Casa Mirador","imgurl":"https:\/\/upload.wikimedia.org\/wikipedia\/commons\/d\/d1\/Image_not_available.png"}},{"type":"Feature","geometry":{"type":"Point","coordinates":[-8.74714949970681,40.6422450015083]},"properties":{"nome":"GOLFINHO BARRA","imgurl":"https:\/\/upload.wikimedia.org\/wikipedia\/commons\/d\/d1\/Image_not_available.png"}},{"type":"Feature","geometry":{"type":"Point","coordinates":[-8.67496047024993,40.8728874285159]},"properties":{"nome":"Moradia Avenida","imgurl":"https:\/\/upload.wikimedia.org\/wikipedia\/commons\/d\/d1\/Image_not_available.png"}},{"type":"Feature","geometry":{"type":"Point","coordinates":[-8.63362182355646,40.6494085753503]},"properties":{"nome":"Casa da Torre","imgurl":"https:\/\/upload.wikimedia.org\/wikipedia\/commons\/d\/d1\/Image_not_available.png"}},{"type":"Feature","geometry":{"type":"Point","coordinates":[-8.65762327901551,40.6427490010009]},"properties":{"nome":"AZULEIXO","imgurl":"https:\/\/upload.wikimedia.org\/wikipedia\/commons\/d\/d1\/Image_not_available.png"}},{"type":"Feature","geometry":{"type":"Point","coordinates":[-8.63533833518114,40.6644899412918]},"properties":{"nome":"No campo, junto \u00e0 cidade e praia","imgurl":"https:\/\/upload.wikimedia.org\/wikipedia\/commons\/d\/d1\/Image_not_available.png"}},{"type":"Feature","geometry":{"type":"Point","coordinates":[-8.53254624532827,40.6692073743678]},"properties":{"nome":"Quinta das \u00c1guias","imgurl":"https:\/\/upload.wikimedia.org\/wikipedia\/commons\/d\/d1\/Image_not_available.png"}},{"type":"Feature","geometry":{"type":"Point","coordinates":[-8.64167533596125,40.6438728070156]},"properties":{"nome":"Aveiro White","imgurl":"https:\/\/upload.wikimedia.org\/wikipedia\/commons\/d\/d1\/Image_not_available.png"}},{"type":"Feature","geometry":{"type":"Point","coordinates":[-8.70103615636127,40.7602487445818]},"properties":{"nome":"Mikes River Apartment","imgurl":"https:\/\/upload.wikimedia.org\/wikipedia\/commons\/d\/d1\/Image_not_available.png"}},{"type":"Feature","geometry":{"type":"Point","coordinates":[-8.67691879577269,40.8698042073659]},"properties":{"nome":"Barramares","imgurl":"https:\/\/upload.wikimedia.org\/wikipedia\/commons\/d\/d1\/Image_not_available.png"}},{"type":"Feature","geometry":{"type":"Point","coordinates":[-8.71323261261819,40.7601005970211]},"properties":{"nome":"Casa  Torreira Mar","imgurl":"https:\/\/upload.wikimedia.org\/wikipedia\/commons\/d\/d1\/Image_not_available.png"}},