{"type":"FeatureCollection","features":[{"type":"Feature","geometry":{"type":"Point","coordinates":[-8.6553449,40.6424486]},"properties":{"nome":"Restaurante Mercado do Peixe"}},{"type":"Feature","geometry":{"type":"Point","coordinates":[-8.6556364,40.6407427]},"properties":{"nome":"Marisqueira Mar\u00e9 Cheia"}},{"type":"Feature","geometry":{"type":"Point","coordinates":[-8.529471,40.5664656]},"properties":{"nome":"O Lampi\u00e3o"}},{"type":"Feature","geometry":{"type":"Point","coordinates":[-8.5294545,40.5663316]},"properties":{"nome":"Pizzaria Stadium"}},{"type":"Feature","geometry":{"type":"Point","coordinates":[-8.654554,40.639717]},"properties":{"nome":"O Barril"}},{"type":"Feature","geometry":{"type":"Point","coordinates":[-8.6548664,40.6396464]},"properties":{"nome":"O Adriano"}},{"type":"Feature","geometry":{"type":"Point","coordinates":[-8.6543169,40.6398992]},"properties":{"nome":"Adega do Evaristo"}},{"type":"Feature","geometry":{"type":"Point","coordinates":[-8.443023,40.576149]},"properties":{"nome":"O T\u00edpico"}},{"type":"Feature","geometry":{"type":"Point","coordinates":[-8.4474373,40.5722048]},"properties":{"nome":"Fusion Sushi"}},{"type":"Feature","geometry":{"type":"Point","coordinates":[-8.4483361,40.5948674]},"properties":{"nome":"O Manel"}},{"type":"Feature","geometry":{"type":"Point","coordinates":[-8.4486194,40.572212]},"properties":{"nome":"O Tonel"}},{"type":"Feature","geometry":{"type":"Point","coordinates":[-8.5146484,40.6021584]},"properties":{"nome":"O Florindo"}},{"type":"Feature","geometry":{"type":"Point","coordinates":[-8.4957074,40.5945427]},"properties":{"nome":"Restaurante ROMI"}},{"type":"Feature","geometry":{"type":"Point","coordinates":[-8.4472337,40.5754185]},"properties":{"nome":"Pizaria Suprema"}},{"type":"Feature","geometry":{"type":"Point","coordinates":[-8.4457733,40.5717587]},"properties":{"nome":"O Ribeirinho"}},{"type":"Feature","geometry":{"type":"Point","coordinates":[-8.4776554,40.840062]},"properties":{"nome":"ArtClub"}},{"type":"Feature","geometry":{"type":"Point","coordinates":[-8.4752383,40.8402947]},"properties":{"nome":"Feitoria dos Sentidos"}},{"type":"Feature","geometry":{"type":"Point","coordinates":[-8.4471881,40.5751921]},"properties":{"nome":"Venda Nova 25"}},{"type":"Feature","geometry":{"type":"Point","coordinates":[-8.7506571,40.611102]},"properties":{"nome":"Caf\u00e9 Restaurante Oliveira"}},{"type":"Feature","geometry":{"type":"Point","coordinates":[-8.4704923,40.5731886]},"properties":{"nome":"O Manjar da Helena"}},{"type":"Feature","geometry":{"type":"Point","coordinates":[-8.4331547,40.5558587]},"properties":{"nome":"Alto do Castelo"}},{"type":"Feature","geometry":{"type":"Point","coordinates":[-8.4893089,40.557039]},"properties":{"nome":"Jo\u00e3o dos Leit\u00f5es"}},{"type":"Feature","geometry":{"type":"Point","coordinates":[-8.625789,40.8589637]},"properties":{"nome":"Jo\u00e3o da Vareirinha"}},{"type":"Feature","geometry":{"type":"Point","coordinates":[-8.6633024,40.8437189]},"properties":{"nome":"O Leme"}},{"type":"Feature","geometry":{"type":"Point","coordinates":[-8.6247026,40.8600263]},"properties":{"nome":"Paradise"}},{"type":"Feature","geometry":{"type":"Point","coordinates":[-8.6447684,40.4757789]},"properties":{"nome":"O Arcanjo Churrasceria"}},{"type":"Feature","geometry":{"type":"Point","coordinates":[-8.6669512,40.5489221]},"properties":{"nome":"Restaurante Rampinha"}},{"type":"Feature","geometry":{"type":"Point","coordinates":[-8.7493239,40.6103452]},"properties":{"nome":"Canastra do Fidalgo"}},{"type":"Feature","geometry":{"type":"Point","coordinates":[-8.4906427,40.7437897]},"properties":{"nome":"Adega do Leit\u00e3o"}},{"type":"Feature","geometry":{"type":"Point","coordinates":[-8.4904798,40.743595]},"properties":{"nome":"Baptista - Casa dos Leit\u00f5es"}},{"type":"Feature","geometry":{"type":"Point","coordinates":[-8.488745,40.7337207]},"properties":{"nome":"A Bica"}},{"type":"Feature","geometry":{"type":"Point","coordinates":[-8.4965563,40.7034687]},"properties":{"nome":"Vista Alegre"}},{"type":"Feature","geometry":{"type":"Point","coordinates":[-8.4542691,40.6961766]},"properties":{"nome":"Caf\u00e9-Restaurante \"El Moderno\""}},{"type":"Feature","geometry":{"type":"Point","coordinates":[-8.4526158,40.5289072]},"properties":{"nome":"Dois Postes"}},{"type":"Feature","geometry":{"type":"Point","coordinates":[-8.61980552320782,40.8693638510811]},"properties":{"nome":null}},{"type":"Feature","geometry":{"type":"Point","coordinates":[-8.447477,40.506498]},"properties":{"nome":"O Conv\u00edvio"}},{"type":"Feature","geometry":{"type":"Point","coordinates":[-8.5552489,40.6891601]},"properties":{"nome":"Restaurante Brand\u00e3o"}},{"type":"Feature","geometry":{"type":"Point","coordinates":[-8.5603112,40.6745601]},"properties":{"nome":"Restaurante Casa dos Leit\u00f5es"}},{"type":"Feature","geometry":{"type":"Point","coordinates":[-8.6474716,40.6287638]},"properties":{"nome":"O Recanto da Rosa"}},{"type":"Feature","geometry":{"type":"Point","coordinates":[-8.6482944,40.6301109]},"properties":{"nome":"Churrasqueira Madalena"}},{"type":"Feature","geometry":{"type":"Point","coordinates":[-8.6480934,40.6274454]},"properties":{"nome":"Casa Mia"}},{"type":"Feature","geometry":{"type":"Point","coordinates":[-8.6486814,40.6270287]},"properties":{"nome":"Vila Jovem"}},{"type":"Feature","geometry":{"type":"Point","coordinates":[-8.4565939,40.6189259]},"properties":{"nome":"O Cancela"}},{"type":"Feature","geometry":{"type":"Point","coordinates":[-8.4837541,40.686845]},"properties":{"nome":"Tasquinha dos Amigos"}},{"type":"Feature","geometry":{"type":"Point","coordinates":[-8.4649109,40.560836]},"properties":{"nome":"Zito dos Leit\u00f5es"}},{"type":"Feature","geometry":{"type":"Point","coordinates":[-8.4482079,40.5705816]},"properties":{"nome":"MANJAR DA HELENA"}},{"type":"Feature","geometry":{"type":"Point","coordinates":[-8.44596,40.572393]},"properties":{"nome":"Burguiba"}},{"type":"Feature","geometry":{"type":"Point","coordinates":[-8.4484731,40.5736289]},"properties":{"nome":"Guarino"}},{"type":"Feature","geometry":{"type":"Point","coordinates":[-8.7119911,40.6372953]},"properties":{"nome":"Dom Petisco"}},{"type":"Feature","geometry":{"type":"Point","coordinates":[-8.7133656,40.6366712]},"properties":{"nome":"O Por\u00e3o"}},{"type":"Feature","geometry":{"type":"Point","coordinates":[-8.4474091,40.5718035]},"properties":{"nome":"Tem Tem"}},{"type":"Feature","geometry":{"type":"Point","coordinates":[-8.6821181,40.5552297]},"properties":{"nome":"Caf\u00e9 Snack Bar Clipper"}},{"type":"Feature","geometry":{"type":"Point","coordinates":[-8.6814042,40.5538986]},"properties":{"nome":"Ferradura"}},{"type":"Feature","geometry":{"type":"Point","coordinates":[-8.6452542,40.6474675]},"properties":{"nome":"Restaurante Marinhas"}},{"type":"Feature","geometry":{"type":"Point","coordinates":[-8.611846,40.6637868]},"properties":{"nome":"Restaurante Grelha do Chefe"}},{"type":"Feature","geometry":{"type":"Point","coordinates":[-8.6290849,40.64856]},"properties":{"nome":"Churrasqueira O P\u00facaro"}},{"type":"Feature","geometry":{"type":"Point","coordinates":[-8.6295455,40.6486578]},"properties":{"nome":"Restaurante O Cruzeiro"}},{"type":"Feature","geometry":{"type":"Point","coordinates":[-8.615969,40.6411725]},"properties":{"nome":"Caf\u00e9 Restaurante Vale da Cerejeira"}},{"type":"Feature","geometry":{"type":"Point","coordinates":[-8.4790033,40.8385482]},"properties":{"nome":"O Campon\u00eas"}},{"type":"Feature","geometry":{"type":"Point","coordinates":[-8.4777918,40.8393724]},"properties":{"nome":"Espalha Brasas"}},{"type":"Feature","geometry":{"type":"Point","coordinates":[-8.4787909,40.8384275]},"properties":{"nome":"D. Gomado"}},{"type":"Feature","geometry":{"type":"Point","coordinates":[-8.4751426,40.8388542]},"properties":{"nome":"Diplomata"}},{"type":"Feature","geometry":{"type":"Point","coordinates":[-8.4814321,40.8337698]},"properties":{"nome":"Saladine"}},{"type":"Feature","geometry":{"type":"Point","coordinates":[-8.4763442,40.8355019]},"properties":{"nome":"Dom Filipe"}},{"type":"Feature","geometry":{"type":"Point","coordinates":[-8.4783022,40.8350392]},"properties":{"nome":"Aldeia Nova"}},{"type":"Feature","geometry":{"type":"Point","coordinates":[-8.5722762,40.7527798]},"properties":{"nome":"Cozinha da Terra"}},{"type":"Feature","geometry":{"type":"Point","coordinates":[-8.63062,40.6458868]},"properties":{"nome":"Zero's Pizzaria"}},{"type":"Feature","geometry":{"type":"Point","coordinates":[-8.7129396,40.7604753]},"properties":{"nome":"O Alberto"}},{"type":"Feature","geometry":{"type":"Point","coordinates":[-8.4445191,40.5745554]},"properties":{"nome":null}},{"type":"Feature","geometry":{"type":"Point","coordinates":[-8.6279098,40.6405652]},"properties":{"nome":null}},{"type":"Feature","geometry":{"type":"Point","coordinates":[-8.5048601,40.4641008]},"properties":{"nome":"Retirogest"}},{"type":"Feature","geometry":{"type":"Point","coordinates":[-8.4475358,40.5697195]},"properties":{"nome":"Casa do Rio"}},{"type":"Feature","geometry":{"type":"Point","coordinates":[-8.4454115,40.5717039]},"properties":{"nome":"2 Entradas"}},{"type":"Feature","geometry":{"type":"Point","coordinates":[-8.4472729,40.5716122]},"properties":{"nome":"Botareu"}},{"type":"Feature","geometry":{"type":"Point","coordinates":[-8.6771794,40.8695703]},"properties":{"nome":"Restaurante Cantinho do Valente"}},{"type":"Feature","geometry":{"type":"Point","coordinates":[-8.6489909,40.6266587]},"properties":{"nome":"Tacho Pronto"}},{"type":"Feature","geometry":{"type":"Point","coordinates":[-8.652629,40.6373534]},"properties":{"nome":"Terramar"}},{"type":"Feature","geometry":{"type":"Point","coordinates":[-8.6508203,40.6376332]},"properties":{"nome":null}},{"type":"Feature","geometry":{"type":"Point","coordinates":[-8.6512744,40.6384527]},"properties":{"nome":"Pizzaria - abre brevemente"}},{"type":"Feature","geometry":{"type":"Point","coordinates":[-8.6575547,40.640108]},"properties":{"nome":"Alexandre"}},{"type":"Feature","geometry":{"type":"Point","coordinates":[-8.6578815,40.6398661]},"properties":{"nome":"La Mamaroma"}},{"type":"Feature","geometry":{"type":"Point","coordinates":[-8.6574538,40.6400374]},"properties":{"nome":"Onde Quiseres"}},{"type":"Feature","geometry":{"type":"Point","coordinates":[-8.6500733,40.6369605]},"properties":{"nome":"Monte Alentejano"}},{"type":"Feature","geometry":{"type":"Point","coordinates":[-8.6500359,40.6369427]},"properties":{"nome":"Paukar Restaurante"}},{"type":"Feature","geometry":{"type":"Point","coordinates":[-8.6543906,40.6385206]},"properties":{"nome":"Pal\u00e1cio"}},{"type":"Feature","geometry":{"type":"Point","coordinates":[-8.6318568,40.6268817]},"properties":{"nome":"Ca\u00e7ola"}},{"type":"Feature","geometry":{"type":"Point","coordinates":[-8.6495135,40.635787]},"properties":{"nome":"Churrasqueria A Nau"}},{"type":"Feature","geometry":{"type":"Point","coordinates":[-8.6493131,40.6354326]},"properties":{"nome":"La Grotta"}},{"type":"Feature","geometry":{"type":"Point","coordinates":[-8.6494613,40.635689]},"properties":{"nome":"Restaurante Espeto do Sul"}},{"type":"Feature","geometry":{"type":"Point","coordinates":[-8.6480929,40.6332877]},"properties":{"nome":"Ceboleiros"}},{"type":"Feature","geometry":{"type":"Point","coordinates":[-8.645942,40.6333385]},"properties":{"nome":"Trattoria"}},{"type":"Feature","geometry":{"type":"Point","coordinates":[-8.5576389,40.6831013]},"properties":{"nome":"Oficina de Sabores d'Angeja"}},{"type":"Feature","geometry":{"type":"Point","coordinates":[-8.5348589,40.6816023]},"properties":{"nome":"Restaurante Fina Flor"}},{"type":"Feature","geometry":{"type":"Point","coordinates":[-8.5562978,40.6692873]},"properties":{"nome":"Restaurante A Cabacinha"}},{"type":"Feature","geometry":{"type":"Point","coordinates":[-8.5581057,40.684458]},"properties":{"nome":"Caf\u00e9 Snack-Bar Evaristo"}},{"type":"Feature","geometry":{"type":"Point","coordinates":[-8.6454355,40.6248672]},"properties":{"nome":"Matsuri"}},{"type":"Feature","geometry":{"type":"Point","coordinates":[-8.6619656,40.6060142]},"properties":{"nome":"Dom Churrasco"}},{"type":"Feature","geometry":{"type":"Point","coordinates":[-8.6320089,40.6398385]},"properties":{"nome":"O Gavi\u00e3o"}},{"type":"Feature","geometry":{"type":"Point","coordinates":[-8.6311209,40.648185]},"properties":{"nome":"Restaurante \"O Moreto\""}},{"type":"Feature","geometry":{"type":"Point","coordinates":[-8.6551774,40.6175912]},"properties":{"nome":"Restaurante Botafogo"}},{"type":"Feature","geometry":{"type":"Point","coordinates":[-8.6575303,40.639927]},"properties":{"nome":"Restaurante Onda Verde"}},{"type":"Feature","geometry":{"type":"Point","coordinates":[-8.6573747,40.640383]},"properties":{"nome":"Restaurante Armaz\u00e9ns da Ria"}},{"type":"Feature","geometry":{"type":"Point","coordinates":[-8.6560358,40.640754]},"properties":{"nome":"Trincadeira Petiscos"}},{"type":"Feature","geometry":{"type":"Point","coordinates":[-8.6498697,40.6419373]},"properties":{"nome":"Tico-Tico - Cervejaria Snack-Bar"}},{"type":"Feature","geometry":{"type":"Point","coordinates":[-8.6499192,40.6421495]},"properties":{"nome":"Zig Zag - Restaurante Snack-Bar"}},{"type":"Feature","geometry":{"type":"Point","coordinates":[-8.7467732,40.6336416]},"properties":{"nome":"Pizzaria New York"}},{"type":"Feature","geometry":{"type":"Point","coordinates":[-8.6544806,40.6393165]},"properties":{"nome":"Ki"}},{"type":"Feature","geometry":{"type":"Point","coordinates":[-8.6489765,40.6451881]},"properties":{"nome":"Restaurante Santa Joana"}},{"type":"Feature","geometry":{"type":"Point","coordinates":[-8.7473501,40.6435598]},"properties":{"nome":"Meia Laranja"}},{"type":"Feature","geometry":{"type":"Point","coordinates":[-8.7479505,40.6432661]},"properties":{"nome":"Boca da Barra"}},{"type":"Feature","geometry":{"type":"Point","coordinates":[-8.7463534,40.6433453]},"properties":{"nome":"Restaurante Panor\u00e2mico"}},{"type":"Feature","geometry":{"type":"Point","coordinates":[-8.6524446,40.646167]},"properties":{"nome":"Dee Thai Eatery"}},{"type":"Feature","geometry":{"type":"Point","coordinates":[-8.7472543,40.6403407]},"properties":{"nome":"Tacho da Rita"}},{"type":"Feature","geometry":{"type":"Point","coordinates":[-8.7484268,40.6403105]},"properties":{"nome":"Snack Bar Z\u00e9 Manel"}},{"type":"Feature","geometry":{"type":"Point","coordinates":[-8.6412433,40.6443647]},"properties":{"nome":"Restaurante Aquario"}},{"type":"Feature","geometry":{"type":"Point","coordinates":[-8.747163,40.6360906]},"properties":{"nome":"Ondaflor"}},{"type":"Feature","geometry":{"type":"Point","coordinates":[-8.7472055,40.6381383]},"properties":{"nome":"Barra Maris"}},{"type":"Feature","geometry":{"type":"Point","coordinates":[-8.6558074,40.6426001]},"properties":{"nome":"Adamastor"}},{"type":"Feature","geometry":{"type":"Point","coordinates":[-8.6560812,40.6429015]},"properties":{"nome":"O Mercantel"}},{"type":"Feature","geometry":{"type":"Point","coordinates":[-8.6537003,40.6421721]},"properties":{"nome":"Petisqueira Portuguesa"}},{"type":"Feature","geometry":{"type":"Point","coordinates":[-8.6556459,40.6424727]},"properties":{"nome":"O Telheiro"}},{"type":"Feature","geometry":{"type":"Point","coordinates":[-8.6551685,40.6410179]},"properties":{"nome":"Hao Hua"}},{"type":"Feature","geometry":{"type":"Point","coordinates":[-8.6555883,40.6396991]},"properties":{"nome":"Restaurante Mestre do Leme"}},{"type":"Feature","geometry":{"type":"Point","coordinates":[-8.6551183,40.6434398]},"properties":{"nome":"O Buraco"}},{"type":"Feature","geometry":{"type":"Point","coordinates":[-8.6457954,40.6486091]},"properties":{"nome":"Restaurante Gulla"}},{"type":"Feature","geometry":{"type":"Point","coordinates":[-8.6550998,40.6436544]},"properties":{"nome":"Casa Pina"}},{"type":"Feature","geometry":{"type":"Point","coordinates":[-8.6549522,40.6444827]},"properties":{"nome":"Alicarius"}},{"type":"Feature","geometry":{"type":"Point","coordinates":[-8.6544582,40.6426166]},"properties":{"nome":"Tasca do Confrade"}},{"type":"Feature","geometry":{"type":"Point","coordinates":[-8.7467871,40.6376055]},"properties":{"nome":"O Churrasc\u00e3o"}},{"type":"Feature","geometry":{"type":"Point","coordinates":[-8.7468986,40.6380179]},"properties":{"nome":"Marisqueira da Barra"}},{"type":"Feature","geometry":{"type":"Point","coordinates":[-8.7477227,40.6424069]},"properties":{"nome":"Nuven's D'Areia"}},{"type":"Feature","geometry":{"type":"Point","coordinates":[-8.747902,40.6424077]},"properties":{"nome":"Cantinho d'Ab\u00edlia"}},{"type":"Feature","geometry":{"type":"Point","coordinates":[-8.7469549,40.6408033]},"properties":{"nome":"Mar e Sol"}},{"type":"Feature","geometry":{"type":"Point","coordinates":[-8.6559992,40.643032]},"properties":{"nome":"Tasca do Caffe"}},{"type":"Feature","geometry":{"type":"Point","coordinates":[-8.7457664,40.6414159]},"properties":{"nome":"Salsus"}},{"type":"Feature","geometry":{"type":"Point","coordinates":[-8.7442448,40.6430808]},"properties":{"nome":"Restaurante Ria Gastron\u00f3mica"}},{"type":"Feature","geometry":{"type":"Point","coordinates":[-8.7420975,40.6428029]},"properties":{"nome":"Pizzaria Bras\u00e3o"}},{"type":"Feature","geometry":{"type":"Point","coordinates":[-8.7464153,40.6400078]},"properties":{"nome":"Moretti pizzaria"}},{"type":"Feature","geometry":{"type":"Point","coordinates":[-8.479262,40.6886806]},"properties":{"nome":"O Gordo"}},{"type":"Feature","geometry":{"type":"Point","coordinates":[-8.6534797,40.6423641]},"properties":{"nome":"Neptuno"}},{"type":"Feature","geometry":{"type":"Point","coordinates":[-8.6543779,40.6424182]},"properties":{"nome":"Ferro"}},{"type":"Feature","geometry":{"type":"Point","coordinates":[-8.4805629,40.6878769]},"properties":{"nome":"O Teixeira"}},{"type":"Feature","geometry":{"type":"Point","coordinates":[-8.7447993,40.6382686]},"properties":{"nome":"Parque campismo"}},{"type":"Feature","geometry":{"type":"Point","coordinates":[-8.6555816,40.6421549]},"properties":{"nome":"O Arco da Velha"}},{"type":"Feature","geometry":{"type":"Point","coordinates":[-8.6554972,40.6417287]},"properties":{"nome":"Chin\u00eas FUA HUA"}},{"type":"Feature","geometry":{"type":"Point","coordinates":[-8.655511,40.6420558]},"properties":{"nome":"FU HUA"}},{"type":"Feature","geometry":{"type":"Point","coordinates":[-8.656124,40.6422685]},"properties":{"nome":"Moliceiro"}},{"type":"Feature","geometry":{"type":"Point","coordinates":[-8.6561073,40.6423629]},"properties":{"nome":"O Augusto"}},{"type":"Feature","geometry":{"type":"Point","coordinates":[-8.6528628,40.6434204]},"properties":{"nome":"Snack-Bar Picota"}},{"type":"Feature","geometry":{"type":"Point","coordinates":[-8.6459463,40.6447019]},"properties":{"nome":"Galetos Dourados"}},{"type":"Feature","geometry":{"type":"Point","coordinates":[-8.6453529,40.6439967]},"properties":{"nome":"Giz food & drinks"}},{"type":"Feature","geometry":{"type":"Point","coordinates":[-8.6451175,40.6438451]},"properties":{"nome":"Quian Li Xiang"}},{"type":"Feature","geometry":{"type":"Point","coordinates":[-8.6454771,40.6442974]},"properties":{"nome":"Pizzarte"}},{"type":"Feature","geometry":{"type":"Point","coordinates":[-8.6550621,40.642293]},"properties":{"nome":"La Cubata"}},{"type":"Feature","geometry":{"type":"Point","coordinates":[-8.655916,40.6424899]},"properties":{"nome":"Tasquinha da Ria"}},{"type":"Feature","geometry":{"type":"Point","coordinates":[-8.6505284,40.643558]},"properties":{"nome":"Restaurante A Nossa Casa"}},{"type":"Feature","geometry":{"type":"Point","coordinates":[-8.6559149,40.6436789]},"properties":{"nome":"Pizzaria do nosso Bairro"}},{"type":"Feature","geometry":{"type":"Point","coordinates":[-8.4805496,40.6874723]},"properties":{"nome":"Fumeiro"}},{"type":"Feature","geometry":{"type":"Point","coordinates":[-8.4792163,40.6919565]},"properties":{"nome":"Ponto Final"}},{"type":"Feature","geometry":{"type":"Point","coordinates":[-8.4829257,40.688009]},"properties":{"nome":"Ilha da Brasa"}},{"type":"Feature","geometry":{"type":"Point","coordinates":[-8.4809609,40.6875942]},"properties":{"nome":"Boka Doxe"}},{"type":"Feature","geometry":{"type":"Point","coordinates":[-8.4779211,40.6910878]},"properties":{"nome":"Petroleiro"}},{"type":"Feature","geometry":{"type":"Point","coordinates":[-8.4476138,40.5745762]},"properties":{"nome":"Cozinha Velha"}},{"type":"Feature","geometry":{"type":"Point","coordinates":[-8.6590833,40.6306398]},"properties":{"nome":"Cantina de Santiago - Universidade de Aveiro"}},{"type":"Feature","geometry":{"type":"Point","coordinates":[-8.6270213,40.6315998]},"properties":{"nome":"Churrasqueira Querida"}},{"type":"Feature","geometry":{"type":"Point","coordinates":[-8.7296064,40.6624209]},"properties":{"nome":"Restaurante a Bateira"}},{"type":"Feature","geometry":{"type":"Point","coordinates":[-8.7288257,40.6621556]},"properties":{"nome":"Restaurante a Peixaria"}},{"type":"Feature","geometry":{"type":"Point","coordinates":[-8.7285013,40.66181]},"properties":{"nome":"Restaurante o Terminal"}},{"type":"Feature","geometry":{"type":"Point","coordinates":[-8.6580503,40.6396768]},"properties":{"nome":"Adega 28"}},{"type":"Feature","geometry":{"type":"Point","coordinates":[-8.6156281,40.6531339]},"properties":{"nome":"Restaurante O Rodrigo"}},{"type":"Feature","geometry":{"type":"Point","coordinates":[-8.6084005,40.6502309]},"properties":{"nome":"Restaurante - Hostel - A Talha"}},{"type":"Feature","geometry":{"type":"Point","coordinates":[-8.7275267,40.6625733]},"properties":{"nome":"Restaurante O Santos"}},{"type":"Feature","geometry":{"type":"Point","coordinates":[-8.6478441,40.6294193]},"properties":{"nome":"Jin Yuan"}},{"type":"Feature","geometry":{"type":"Point","coordinates":[-8.6111717,40.640093]},"properties":{"nome":"O Sousa"}},{"type":"Feature","geometry":{"type":"Point","coordinates":[-8.7250734,40.468082]},"properties":{"nome":"Ria"}},{"type":"Feature","geometry":{"type":"Point","coordinates":[-8.4656308,40.620547]},"properties":{"nome":"Churrascaria Forno Velho"}},{"type":"Feature","geometry":{"type":"Point","coordinates":[-8.4676195,40.6234896]},"properties":{"nome":"O Vouguinha"}},{"type":"Feature","geometry":{"type":"Point","coordinates":[-8.4504064,40.8082509]},"properties":{"nome":"Restaurante Hidrica do Caima"}},{"type":"Feature","geometry":{"type":"Point","coordinates":[-8.7478538,40.5582307]},"properties":{"nome":"Restaurante Florimar"}},{"type":"Feature","geometry":{"type":"Point","coordinates":[-8.7629896,40.5615543]},"properties":{"nome":"Churrascaria BIG Mouse"}},{"type":"Feature","geometry":{"type":"Point","coordinates":[-8.7635153,40.5619211]},"properties":{"nome":"Pizzaria UNO"}},{"type":"Feature","geometry":{"type":"Point","coordinates":[-8.7673522,40.5633046]},"properties":{"nome":"Marisqueira"}},{"type":"Feature","geometry":{"type":"Point","coordinates":[-8.7694162,40.561322]},"properties":{"nome":"Ei"}},{"type":"Feature","geometry":{"type":"Point","coordinates":[-8.4839145,40.5823741]},"properties":{"nome":"O Romano"}},{"type":"Feature","geometry":{"type":"Point","coordinates":[-8.4812503,40.8404097]},"properties":{"nome":"O Cantinho do Quim"}},{"type":"Feature","geometry":{"type":"Point","coordinates":[-8.481242,40.8402405]},"properties":{"nome":"Tasquinha da Anita"}},{"type":"Feature","geometry":{"type":"Point","coordinates":[-8.4800736,40.8409537]},"properties":{"nome":"Restaurante Rei D. Pipas"}},{"type":"Feature","geometry":{"type":"Point","coordinates":[-8.4789939,40.8398755]},"properties":{"nome":"Dona Pizza"}},{"type":"Feature","geometry":{"type":"Point","coordinates":[-8.477381,40.840116]},"properties":{"nome":"Churrascaria X\u00e1-X\u00e1"}},{"type":"Feature","geometry":{"type":"Point","coordinates":[-8.47708,40.8381953]},"properties":{"nome":"Anacleto"}},{"type":"Feature","geometry":{"type":"Point","coordinates":[-8.4768207,40.8383871]},"properties":{"nome":"Casa Mina"}},{"type":"Feature","geometry":{"type":"Point","coordinates":[-8.4803095,40.6905281]},"properties":{"nome":"Restaurante Casa da Alameda"}},{"type":"Feature","geometry":{"type":"Point","coordinates":[-8.4721454,40.6853013]},"properties":{"nome":"Mesa dos Rendeiros"}},{"type":"Feature","geometry":{"type":"Point","coordinates":[-8.5441579,40.7183544]},"properties":{"nome":"Restaurante Adega do Em\u00eddio"}},{"type":"Feature","geometry":{"type":"Point","coordinates":[-8.4710344,40.6791997]},"properties":{"nome":"Casa Martins"}},{"type":"Feature","geometry":{"type":"Point","coordinates":[-8.6365276,40.8552692]},"properties":{"nome":"Meia Pipa"}},{"type":"Feature","geometry":{"type":"Point","coordinates":[-8.6416281,40.6027344]},"properties":{"nome":"Ab\u00edlio Marques"}},{"type":"Feature","geometry":{"type":"Point","coordinates":[-8.4431723,40.5728351]},"properties":{"nome":"Estrela Mar"}},{"type":"Feature","geometry":{"type":"Point","coordinates":[-8.6267167,40.6278475]},"properties":{"nome":"O Batista do Bacalhau"}},{"type":"Feature","geometry":{"type":"Point","coordinates":[-8.4878575,40.7837451]},"properties":{"nome":"A Tasquinha"}},{"type":"Feature","geometry":{"type":"Point","coordinates":[-8.4810077,40.7865247]},"properties":{"nome":"Pizzariazita"}},{"type":"Feature","geometry":{"type":"Point","coordinates":[-8.7125765,40.759637]},"properties":{"nome":"X\u00e1vega"}},{"type":"Feature","geometry":{"type":"Point","coordinates":[-8.4867673,40.7535183]},"properties":{"nome":"Canto Novo"}},{"type":"Feature","geometry":{"type":"Point","coordinates":[-8.4864004,40.7556209]},"properties":{"nome":"Tacho Pronto"}},{"type":"Feature","geometry":{"type":"Point","coordinates":[-8.4819465,40.7631601]},"properties":{"nome":"Norte"}},{"type":"Feature","geometry":{"type":"Point","coordinates":[-8.4587245,40.7472066]},"properties":{"nome":"O Estev\u00e3o"}},{"type":"Feature","geometry":{"type":"Point","coordinates":[-8.4820494,40.7651145]},"properties":{"nome":"Krocante"}},{"type":"Feature","geometry":{"type":"Point","coordinates":[-8.5469483,40.6372537]},"properties":{"nome":"Restaurante Mil\u00e9nio"}},{"type":"Feature","geometry":{"type":"Point","coordinates":[-8.4809407,40.6961595]},"properties":{"nome":"Lusitano"}},{"type":"Feature","geometry":{"type":"Point","coordinates":[-8.4810815,40.6965303]},"properties":{"nome":"Poiso do Rei"}},{"type":"Feature","geometry":{"type":"Point","coordinates":[-8.6846225,40.6083962]},"properties":{"nome":"Churrascaria Estrela do Sul"}},{"type":"Feature","geometry":{"type":"Point","coordinates":[-8.597023,40.678833]},"properties":{"nome":"Restaurante O Marujo"}},{"type":"Feature","geometry":{"type":"Point","coordinates":[-8.6475893,40.6410925]},"properties":{"nome":"Restaurante Tia Micas"}},{"type":"Feature","geometry":{"type":"Point","coordinates":[-8.6267667,40.6140135]},"properties":{"nome":"Restaurante Sugest\u00f5es da Anita"}},{"type":"Feature","geometry":{"type":"Point","coordinates":[-8.6699017,40.6028455]},"properties":{"nome":"Restaurante Vila Madrid"}},{"type":"Feature","geometry":{"type":"Point","coordinates":[-8.6758093,40.6057647]},"properties":{"nome":"Restaurante Dom Coutinho"}},{"type":"Feature","geometry":{"type":"Point","coordinates":[-8.6201613,40.5916935]},"properties":{"nome":"Restaurante Jo\u00e3o Capela"}},{"type":"Feature","geometry":{"type":"Point","coordinates":[-8.651158,40.6468387]},"properties":{"nome":"Restaurante Sal Poente"}},{"type":"Feature","geometry":{"type":"Point","coordinates":[-8.4460252,40.5718497]},"properties":{"nome":"Arco Velho"}},{"type":"Feature","geometry":{"type":"Point","coordinates":[-8.4469479,40.5716637]},"properties":{"nome":"Pintainho"}},{"type":"Feature","geometry":{"type":"Point","coordinates":[-8.5383825,40.5448167]},"properties":{"nome":"Restaurante e Caf\u00e9 O Zorito"}},{"type":"Feature","geometry":{"type":"Point","coordinates":[-8.6438324,40.6379486]},"properties":{"nome":"Ol\u00e1 Ria"}},{"type":"Feature","geometry":{"type":"Point","coordinates":[-8.6152581,40.6592708]},"properties":{"nome":"Restaurante Solar das Est\u00e1tuas"}},{"type":"Feature","geometry":{"type":"Point","coordinates":[-8.769131,40.5634068]},"properties":{"nome":"Camelo"}},{"type":"Feature","geometry":{"type":"Point","coordinates":[-8.748957,40.6197148]},"properties":{"nome":"Restaurante Clube de Vela"}},{"type":"Feature","geometry":{"type":"Point","coordinates":[-8.5050276,40.8693918]},"properties":{"nome":"Tasquinha Alentejana"}},{"type":"Feature","geometry":{"type":"Point","coordinates":[-8.6766518,40.871309]},"properties":{"nome":"Casa Valente"}},{"type":"Feature","geometry":{"type":"Point","coordinates":[-8.6527581,40.64273]},"properties":{"nome":"Zico"}},{"type":"Feature","geometry":{"type":"Point","coordinates":[-8.6490392,40.6420706]},"properties":{"nome":"Centen\u00e1rio"}},{"type":"Feature","geometry":{"type":"Point","coordinates":[-8.6556825,40.6425553]},"properties":{"nome":"O Bairro"}},{"type":"Feature","geometry":{"type":"Point","coordinates":[-8.6514041,40.6411133]},"properties":{"nome":"Companhia das Sandes"}},{"type":"Feature","geometry":{"type":"Point","coordinates":[-8.6511624,40.6411641]},"properties":{"nome":"Vitaminas"}},{"type":"Feature","geometry":{"type":"Point","coordinates":[-8.6512384,40.6411415]},"properties":{"nome":"Serra da Estrela"}},{"type":"Feature","geometry":{"type":"Point","coordinates":[-8.6514859,40.6410878]},"properties":{"nome":"Aki Sopa"}},{"type":"Feature","geometry":{"type":"Point","coordinates":[-8.6561322,40.642991]},"properties":{"nome":"Gran Turino"}},{"type":"Feature","geometry":{"type":"Point","coordinates":[-8.6235567,40.8597075]},"properties":{"nome":"FBurguer"}},{"type":"Feature","geometry":{"type":"Point","coordinates":[-8.6488892,40.6420961]},"properties":{"nome":"Churrasqueira do Mercado"}},{"type":"Feature","geometry":{"type":"Point","coordinates":[-8.6519045,40.6424425]},"properties":{"nome":"O Vedeta"}},{"type":"Feature","geometry":{"type":"Point","coordinates":[-8.6570594,40.6424942]},"properties":{"nome":"Fus\u00f5es"}},{"type":"Feature","geometry":{"type":"Point","coordinates":[-8.6552348,40.6418834]},"properties":{"nome":"O Legado da Ria"}},{"type":"Feature","geometry":{"type":"Point","coordinates":[-8.6535065,40.6426348]},"properties":{"nome":"N\u00f3s Tr\u00e1s-os-Montes"}},{"type":"Feature","geometry":{"type":"Point","coordinates":[-8.6546944,40.6422142]},"properties":{"nome":"Porta 35"}},{"type":"Feature","geometry":{"type":"Point","coordinates":[-8.6545616,40.642087]},"properties":{"nome":"O Batel"}},{"type":"Feature","geometry":{"type":"Point","coordinates":[-8.6544878,40.6422793]},"properties":{"nome":"\u00c0 Portuguesa"}},{"type":"Feature","geometry":{"type":"Point","coordinates":[-8.6100635,40.6660997]},"properties":{"nome":"Viasa"}},{"type":"Feature","geometry":{"type":"Point","coordinates":[-8.6550479,40.6435498]},"properties":{"nome":"A Palhu\u00e7a"}},{"type":"Feature","geometry":{"type":"Point","coordinates":[-8.6537378,40.6417957]},"properties":{"nome":"Cafe\u00edna nos Arcos"}},{"type":"Feature","geometry":{"type":"Point","coordinates":[-8.6531481,40.6401537]},"properties":{"nome":"Rebaldaria"}},{"type":"Feature","geometry":{"type":"Point","coordinates":[-8.6030412,40.6890631]},"properties":{"nome":"Rio Pr\u00edncipe"}},{"type":"Feature","geometry":{"type":"Point","coordinates":[-8.748616,40.6193632]},"properties":{"nome":"Bar do Guincho"}},{"type":"Feature","geometry":{"type":"Point","coordinates":[-8.6471039,40.6400751]},"properties":{"nome":"Su Ben Shi"}},{"type":"Feature","geometry":{"type":"Point","coordinates":[-8.6553086,40.6410038]},"properties":{"nome":"Tripas de Aveiro"}},{"type":"Feature","geometry":{"type":"Point","coordinates":[-8.6351746,40.6385634]},"properties":{"nome":"O Infante"}},{"type":"Feature","geometry":{"type":"Point","coordinates":[-8.6400808,40.6474355]},"properties":{"nome":null}},{"type":"Feature","geometry":{"type":"Point","coordinates":[-8.4453055,40.5717087]},"properties":{"nome":"Cantinho Serrano"}},{"type":"Feature","geometry":{"type":"Point","coordinates":[-8.6788666,40.547194]},"properties":{"nome":"Gr\u00e9mio Restaurante - Bar"}},{"type":"Feature","geometry":{"type":"Point","coordinates":[-8.6186136,40.8626833]},"properties":{"nome":"Luso Africano"}},{"type":"Feature","geometry":{"type":"Point","coordinates":[-8.6778729,40.5432761]},"properties":{"nome":null}},{"type":"Feature","geometry":{"type":"Point","coordinates":[-8.6784431,40.5322536]},"properties":{"nome":null}},{"type":"Feature","geometry":{"type":"Point","coordinates":[-8.6972425,40.4724447]},"properties":{"nome":"Junior"}},{"type":"Feature","geometry":{"type":"Point","coordinates":[-8.6519381,40.6424267]},"properties":{"nome":"Restaurante Vedeta do Arco"}},{"type":"Feature","geometry":{"type":"Point","coordinates":[-8.7470888,40.6284166]},"properties":{"nome":"Restaurante Duna do Meio"}},{"type":"Feature","geometry":{"type":"Point","coordinates":[-8.7119095,40.7603555]},"properties":{"nome":"Tasco do Ti Alberto"}},{"type":"Feature","geometry":{"type":"Point","coordinates":[-8.7119417,40.7600427]},"properties":{"nome":"Bastos"}},{"type":"Feature","geometry":{"type":"Point","coordinates":[-8.7698245,40.5610728]},"properties":{"nome":"Mare"}},{"type":"Feature","geometry":{"type":"Point","coordinates":[-8.7198327,40.6151211]},"properties":{"nome":"Herdade dos Av\u00f3s"}},{"type":"Feature","geometry":{"type":"Point","coordinates":[-8.4268816,40.6112366]},"properties":{"nome":"Videira"}},{"type":"Feature","geometry":{"type":"Point","coordinates":[-8.6250402,40.8595747]},"properties":{"nome":"XS"}},{"type":"Feature","geometry":{"type":"Point","coordinates":[-8.5089809,40.5330058]},"properties":{"nome":"Espeto no Boi"}},{"type":"Feature","geometry":{"type":"Point","coordinates":[-8.4489525,40.5722201]},"properties":{"nome":"Fernando"}},{"type":"Feature","geometry":{"type":"Point","coordinates":[-8.6254467,40.8592582]},"properties":{"nome":"TOCA"}},{"type":"Feature","geometry":{"type":"Point","coordinates":[-8.6507475,40.6425194]},"properties":{"nome":"Kyoto House"}},{"type":"Feature","geometry":{"type":"Point","coordinates":[-8.6559866,40.642528]},"properties":{"nome":"Fornalha"}},{"type":"Feature","geometry":{"type":"Point","coordinates":[-8.5356362,40.7560371]},"properties":{"nome":null}},{"type":"Feature","geometry":{"type":"Point","coordinates":[-8.6534353,40.6427693]},"properties":{"nome":"Tasquinha do Leit\u00e3o"}},{"type":"Feature","geometry":{"type":"Point","coordinates":[-8.7362393,40.6118654]},"properties":{"nome":"Pizzaria Estufa"}},{"type":"Feature","geometry":{"type":"Point","coordinates":[-8.5864002,40.850492]},"properties":{"nome":"Frango de Paris"}},{"type":"Feature","geometry":{"type":"Point","coordinates":[-8.626162,40.8597157]},"properties":{"nome":"O Palheiro"}},{"type":"Feature","geometry":{"type":"Point","coordinates":[-8.6206704,40.8595447]},"properties":{"nome":"O\u00e1sis"}},{"type":"Feature","geometry":{"type":"Point","coordinates":[-8.5095293,40.8758108]},"properties":{"nome":"Churrasqueira Vila Nova"}},{"type":"Feature","geometry":{"type":"Point","coordinates":[-8.4929426,40.8674963]},"properties":{"nome":"Churrascaria Franghot"}},{"type":"Feature","geometry":{"type":"Point","coordinates":[-8.6669086,40.5992605]},"properties":{"nome":"Gilbert'os"}},{"type":"Feature","geometry":{"type":"Point","coordinates":[-8.7170277,40.6297846]},"properties":{"nome":"O Braseiro"}},{"type":"Feature","geometry":{"type":"Point","coordinates":[-8.4731396,40.8616242]},"properties":{"nome":"Restaurante Quinta da Lomba"}},{"type":"Feature","geometry":{"type":"Point","coordinates":[-8.4841627,40.8762357]},"properties":{"nome":"Restaurante Reis"}},{"type":"Feature","geometry":{"type":"Point","coordinates":[-8.4894302,40.8738213]},"properties":{"nome":"Adega da Mina"}},{"type":"Feature","geometry":{"type":"Point","coordinates":[-8.4888236,40.8764922]},"properties":{"nome":"Solar da Aldeia"}},{"type":"Feature","geometry":{"type":"Point","coordinates":[-8.469573,40.5581779]},"properties":{"nome":"Restaurante e Churrascaria Cidade das P\u00e9talas"}},{"type":"Feature","geometry":{"type":"Point","coordinates":[-8.6742732,40.8716818]},"properties":{"nome":"Restaurante Fura"}},{"type":"Feature","geometry":{"type":"Point","coordinates":[-8.6488624,40.634522]},"properties":{"nome":"Vegifrut"}},{"type":"Feature","geometry":{"type":"Point","coordinates":[-8.4631741,40.8056359]},"properties":{"nome":"Restaurante Pouso Alto"}},{"type":"Feature","geometry":{"type":"Point","coordinates":[-8.4622041,40.7947356]},"properties":{"nome":"Restaurante Zona Verde"}},{"type":"Feature","geometry":{"type":"Point","coordinates":[-8.4621183,40.7940655]},"properties":{"nome":"Caf\u00e9 Restaurante Conv\u00edvio"}},{"type":"Feature","geometry":{"type":"Point","coordinates":[-8.6573702,40.6423952]},"properties":{"nome":"Restaurante Bacalhau & Afins"}},{"type":"Feature","geometry":{"type":"Point","coordinates":[-8.7060538,40.642588]},"properties":{"nome":"Take Away Prato Feito"}},{"type":"Feature","geometry":{"type":"Point","coordinates":[-8.7445408,40.6430801]},"properties":{"nome":"Barba Azul - the sushi house"}},{"type":"Feature","geometry":{"type":"Point","coordinates":[-8.7466187,40.6430312]},"properties":{"nome":"Miami"}},{"type":"Feature","geometry":{"type":"Point","coordinates":[-8.6540932,40.6422705]},"properties":{"nome":"El Boquer\u00f3n Tapas Lounge"}},{"type":"Feature","geometry":{"type":"Point","coordinates":[-8.5084118,40.8780389]},"properties":{"nome":"Taberna do Cucu"}},{"type":"Feature","geometry":{"type":"Point","coordinates":[-8.6022194,40.8535828]},"properties":{"nome":"Picanha na Brasa"}},{"type":"Feature","geometry":{"type":"Point","coordinates":[-8.6162948,40.8744336]},"properties":{"nome":"Diavane"}},{"type":"Feature","geometry":{"type":"Point","coordinates":[-8.6150597,40.8705366]},"properties":{"nome":"Ruinas"}},{"type":"Feature","geometry":{"type":"Point","coordinates":[-8.6040459,40.8553957]},"properties":{"nome":"A Torre"}},{"type":"Feature","geometry":{"type":"Point","coordinates":[-8.6547593,40.6419799]},"properties":{"nome":"Musgo"}},{"type":"Feature","geometry":{"type":"Point","coordinates":[-8.644801,40.6283458]},"properties":{"nome":"Besuto"}},{"type":"Feature","geometry":{"type":"Point","coordinates":[-8.4543926,40.5406861]},"properties":{"nome":"O Caxeiro"}},{"type":"Feature","geometry":{"type":"Point","coordinates":[-8.4781127,40.7963516]},"properties":{"nome":"Z\u00e9 das F\u00eaveras"}},{"type":"Feature","geometry":{"type":"Point","coordinates":[-8.6536506,40.6395879]},"properties":{"nome":"\u00c0 Porta"}},{"type":"Feature","geometry":{"type":"Point","coordinates":[-8.4632224,40.5928103]},"properties":{"nome":null}},{"type":"Feature","geometry":{"type":"Point","coordinates":[-8.4742355,40.5938226]},"properties":{"nome":"Plenitude"}},{"type":"Feature","geometry":{"type":"Point","coordinates":[-8.7685578,40.5635413]},"properties":{"nome":"Flor da Praia"}},{"type":"Feature","geometry":{"type":"Point","coordinates":[-8.7493466,40.6104357]},"properties":{"nome":"O Cais"}},{"type":"Feature","geometry":{"type":"Point","coordinates":[-8.7473049,40.6434309]},"properties":{"nome":"Bluefin"}},{"type":"Feature","geometry":{"type":"Point","coordinates":[-8.7493319,40.6102821]},"properties":{"nome":"Estibordo"}},{"type":"Feature","geometry":{"type":"Point","coordinates":[-8.6535855,40.6455524]},"properties":{"nome":"Taberna do Canal"}},{"type":"Feature","geometry":{"type":"Point","coordinates":[-8.7689895,40.5637161]},"properties":{"nome":"Flor da Praia"}},{"type":"Feature","geometry":{"type":"Point","coordinates":[-8.6532285,40.6422935]},"properties":{"nome":"La Mozzarella"}},{"type":"Feature","geometry":{"type":"Point","coordinates":[-8.600294,40.6812442]},"properties":{"nome":"O Ambrosio"}},{"type":"Feature","geometry":{"type":"Point","coordinates":[-8.4419617,40.5752437]},"properties":{"nome":"Telepizza"}},{"type":"Feature","geometry":{"type":"Point","coordinates":[-8.4481451,40.5238103]},"properties":{"nome":"O Incognito"}},{"type":"Feature","geometry":{"type":"Point","coordinates":[-8.6512981,40.6383632]},"properties":{"nome":"100 Montaditos"}},{"type":"Feature","geometry":{"type":"Point","coordinates":[-8.7175526,40.5512909]},"properties":{"nome":"Ib\u00e9rico"}},{"type":"Feature","geometry":{"type":"Point","coordinates":[-8.6488294,40.6416064]},"properties":{"nome":"Revolta"}},{"type":"Feature","geometry":{"type":"Point","coordinates":[-8.7322782,40.620323]},"properties":{"nome":"A Cave"}},{"type":"Feature","geometry":{"type":"Point","coordinates":[-8.7122934,40.6373197]},"properties":{"nome":"Ra-po tacho (take away)"}},{"type":"Feature","geometry":{"type":"Point","coordinates":[-8.4452994,40.5764762]},"properties":{"nome":"Balance Fit Food"}},{"type":"Feature","geometry":{"type":"Point","coordinates":[-8.434696,40.8513184]},"properties":{"nome":"Adega da Tamanqueira"}},{"type":"Feature","geometry":{"type":"Point","coordinates":[-8.6557084,40.8649558]},"properties":{"nome":null}},{"type":"Feature","geometry":{"type":"Point","coordinates":[-8.6207056,40.6541537]},"properties":{"nome":"Quinta de Santo Ant\u00f3nio"}},{"type":"Feature","geometry":{"type":"Point","coordinates":[-8.7695975,40.5615857]},"properties":{"nome":"Churrasqueira Vito"}},{"type":"Feature","geometry":{"type":"Point","coordinates":[-8.4502374,40.5697278]},"properties":{"nome":"Adega do Manel"}},{"type":"Feature","geometry":{"type":"Point","coordinates":[-8.4456491,40.4917053]},"properties":{"nome":"O Valdemar"}},{"type":"Feature","geometry":{"type":"Point","coordinates":[-8.6424498,40.6415411]},"properties":{"nome":"DaTerra"}},{"type":"Feature","geometry":{"type":"Point","coordinates":[-8.6171,40.8639824]},"properties":{"nome":"Taberna do Joaquim"}},{"type":"Feature","geometry":{"type":"Point","coordinates":[-8.6450146,40.6258166]},"properties":{"nome":"Fama by Lu\u00eds Lavrador"}},{"type":"Feature","geometry":{"type":"Point","coordinates":[-8.675581,40.6058993]},"properties":{"nome":"MARADENTRO"}},{"type":"Feature","geometry":{"type":"Point","coordinates":[-8.629471,40.6484749]},"properties":{"nome":"Culpa da Vontade"}},{"type":"Feature","geometry":{"type":"Point","coordinates":[-8.6349095,40.8507253]},"properties":{"nome":"Bar Restaurante Columbofila"}},{"type":"Feature","geometry":{"type":"Point","coordinates":[-8.6147123,40.8562375]},"properties":{"nome":"Taberna do Barbosa"}},{"type":"Feature","geometry":{"type":"Point","coordinates":[-8.6255522,40.858241]},"properties":{"nome":"Galito Dourado"}},{"type":"Feature","geometry":{"type":"Point","coordinates":[-8.625566,40.8583101]},"properties":{"nome":"Galito Dourado"}},{"type":"Feature","geometry":{"type":"Point","coordinates":[-8.6449094,40.8477313]},"properties":{"nome":"Quinta da Tojeira"}},{"type":"Feature","geometry":{"type":"Point","coordinates":[-8.6655682,40.6453826]},"properties":{"nome":"Ostraveiro"}},{"type":"Feature","geometry":{"type":"Point","coordinates":[-8.4915703,40.7001034]},"properties":{"nome":"Solar o Condado"}},{"type":"Feature","geometry":{"type":"Point","coordinates":[-8.7704761,40.5594202]},"properties":{"nome":"Bistro Na Kombi"}},{"type":"Feature","geometry":{"type":"Point","coordinates":[-8.4827437,40.7690909]},"properties":{"nome":"Receitas Divertidas"}},{"type":"Feature","geometry":{"type":"Point","coordinates":[-8.481176,40.6866481]},"properties":{"nome":"YoYo"}},{"type":"Feature","geometry":{"type":"Point","coordinates":[-8.4877304,40.7530387]},"properties":{"nome":"Piraquara"}},{"type":"Feature","geometry":{"type":"Point","coordinates":[-8.614873,40.6579678]},"properties":{"nome":"Bom Gosto"}},{"type":"Feature","geometry":{"type":"Point","coordinates":[-8.6111683,40.6384115]},"properties":{"nome":"Canto dos Leit\u00f5es"}},{"type":"Feature","geometry":{"type":"Point","coordinates":[-8.6469656,40.6426203]},"properties":{"nome":"The Primal House"}},{"type":"Feature","geometry":{"type":"Point","coordinates":[-8.4970563,40.6962196]},"properties":{"nome":"O Sobreiro"}},{"type":"Feature","geometry":{"type":"Point","coordinates":[-8.4808711,40.6977461]},"properties":{"nome":"Rei dos Franguitos"}},{"type":"Feature","geometry":{"type":"Point","coordinates":[-8.612351,40.6405588]},"properties":{"nome":"Braseiro Real"}},{"type":"Feature","geometry":{"type":"Point","coordinates":[-8.701639,40.7596405]},"properties":{"nome":"A Varina"}},{"type":"Feature","geometry":{"type":"Point","coordinates":[-8.4311562,40.5106033]},"properties":{"nome":"O Vidal"}},{"type":"Feature","geometry":{"type":"Point","coordinates":[-8.7121105,40.7606635]},"properties":{"nome":"Avenida"}},{"type":"Feature","geometry":{"type":"Point","coordinates":[-8.7508734,40.6114751]},"properties":{"nome":"Mimo"}},{"type":"Feature","geometry":{"type":"Point","coordinates":[-8.7289971,40.6045348]},"properties":{"nome":"O Gafanhoto"}},{"type":"Feature","geometry":{"type":"Point","coordinates":[-8.6594895,40.5443597]},"properties":{"nome":"Confraria Sabores da Ab\u00f3bora"}},{"type":"Feature","geometry":{"type":"Point","coordinates":[-8.6240311,40.562166]},"properties":{"nome":"Magn\u00f3lia"}},{"type":"Feature","geometry":{"type":"Point","coordinates":[-8.6001608,40.525873]},"properties":{"nome":"Galo e Touro 2"}},{"type":"Feature","geometry":{"type":"Point","coordinates":[-8.6673831,40.59979]},"properties":{"nome":"O Cantinho"}},{"type":"Feature","geometry":{"type":"Point","coordinates":[-8.746891,40.6397724]},"properties":{"nome":"Peixe na Barra"}},{"type":"Feature","geometry":{"type":"Point","coordinates":[-8.4615979,40.6023339]},"properties":{"nome":"O Velho Casti\u00e7o"}},{"type":"Feature","geometry":{"type":"Point","coordinates":[-8.4427153,40.5760564]},"properties":{"nome":"Rockpizza"}},{"type":"Feature","geometry":{"type":"Point","coordinates":[-8.759176,40.560687]},"properties":{"nome":"Tapas"}},{"type":"Feature","geometry":{"type":"Point","coordinates":[-8.7521102,40.5590221]},"properties":{"nome":"Faina"}},{"type":"Feature","geometry":{"type":"Point","coordinates":[-8.5710193,40.7685809]},"properties":{"nome":"Restaurante e Pizzaria \"A Fonte"}},{"type":"Feature","geometry":{"type":"Point","coordinates":[-8.6537518,40.6422826]},"properties":{"nome":"Tasquinha Do Leitao"}},{"type":"Feature","geometry":{"type":"Point","coordinates":[-8.6528447,40.6422306]},"properties":{"nome":"Raiz o Vegetariano do Bairro"}},{"type":"Feature","geometry":{"type":"Point","coordinates":[-8.6550354,40.6423435]},"properties":{"nome":null}},{"type":"Feature","geometry":{"type":"Point","coordinates":[-8.477577,40.8411414]},"properties":{"nome":"Adega Mota"}},{"type":"Feature","geometry":{"type":"Point","coordinates":[-8.4812422,40.8403312]},"properties":{"nome":"A Taberna do Lino"}},{"type":"Feature","geometry":{"type":"Point","coordinates":[-8.6610606,40.6447726]},"properties":{"nome":"Laguna"}},{"type":"Feature","geometry":{"type":"Point","coordinates":[-8.6549848,40.6427079]},"properties":{"nome":"PlazaGrill"}},{"type":"Feature","geometry":{"type":"Point","coordinates":[-8.7441139,40.5574601]},"properties":{"nome":"Delta Caf\u00e9"}},{"type":"Feature","geometry":{"type":"Point","coordinates":[-8.4811245,40.6892976]},"properties":{"nome":"Eita!!! Sandubaria"}},{"type":"Feature","geometry":{"type":"Point","coordinates":[-8.4810302,40.6894275]},"properties":{"nome":"Hiroba Sushi"}},{"type":"Feature","geometry":{"type":"Point","coordinates":[-8.4811432,40.6893559]},"properties":{"nome":"Sabores da Pra\u00e7a"}},{"type":"Feature","geometry":{"type":"Point","coordinates":[-8.6416997,40.6435581]},"properties":{"nome":"O Cantinho do Batista"}},{"type":"Feature","geometry":{"type":"Point","coordinates":[-8.656069,40.6393268]},"properties":{"nome":"Clandestino by Salpoente"}},{"type":"Feature","geometry":{"type":"Point","coordinates":[-8.70423028049979,40.6278286343124]},"properties":{"nome":null}},{"type":"Feature","geometry":{"type":"Point","coordinates":[-8.4812488,40.6886653]},"properties":{"nome":"Mrs. Bifana"}},{"type":"Feature","geometry":{"type":"Point","coordinates":[-8.6445625,40.6270202]},"properties":{"nome":"Vitaminas"}},{"type":"Feature","geometry":{"type":"Point","coordinates":[-8.6444896,40.6270772]},"properties":{"nome":"Italian Republic"}},{"type":"Feature","geometry":{"type":"Point","coordinates":[-8.7509371,40.6171678]},"properties":{"nome":"Peixe na Costa"}},{"type":"Feature","geometry":{"type":"Point","coordinates":[-8.733157,40.6182473]},"properties":{"nome":"Dante"}},{"type":"Feature","geometry":{"type":"Point","coordinates":[-8.4506197,40.6348935]},"properties":{"nome":"Restaurante Casino"}},{"type":"Feature","geometry":{"type":"Point","coordinates":[-8.6512762,40.6382522]},"properties":{"nome":"Rang Mahal"}},{"type":"Feature","geometry":{"type":"Point","coordinates":[-8.67654,40.8741293]},"properties":{"nome":null}},{"type":"Feature","geometry":{"type":"Point","coordinates":[-8.7694696,40.5619271]},"properties":{"nome":"Mar\u00e9 Restaurante & Gin bar"}},{"type":"Feature","geometry":{"type":"Point","coordinates":[-8.4547807,40.5907083]},"properties":{"nome":"Pingo Doce"}},{"type":"Feature","geometry":{"type":"Point","coordinates":[-8.6174509,40.8636033]},"properties":{"nome":"Tabafeira Lusitana"}},{"type":"Feature","geometry":{"type":"Point","coordinates":[-8.6488563,40.6423817]},"properties":{"nome":"Tasca do Amarelinho"}},{"type":"Feature","geometry":{"type":"Point","coordinates":[-8.6207906,40.6507746]},"properties":{"nome":"Restaurante Pingo Doce"}},{"type":"Feature","geometry":{"type":"Point","coordinates":[-8.63141360886732,40.8599619004145]},"properties":{"nome":"Garrafeira"}},{"type":"Feature","geometry":{"type":"Point","coordinates":[-8.6533258,40.639597]},"properties":{"nome":"Doutores Engenheiros"}},{"type":"Feature","geometry":{"type":"Point","coordinates":[-8.5957814,40.6825669]},"properties":{"nome":"O Transmontano"}},{"type":"Feature","geometry":{"type":"Point","coordinates":[-8.5952194,40.6830421]},"properties":{"nome":"Tavares"}},{"type":"Feature","geometry":{"type":"Point","coordinates":[-8.4465293,40.5740677]},"properties":{"nome":"Brutus"}},{"type":"Feature","geometry":{"type":"Point","coordinates":[-8.6523557,40.6414433]},"properties":{"nome":"Bella Ria - Restaurante Snack-Bar"}},{"type":"Feature","geometry":{"type":"Point","coordinates":[-8.51164442222645,40.5760069022496]},"properties":{"nome":"P\u00f4r do Sol"}},{"type":"Feature","geometry":{"type":"Point","coordinates":[-8.68171935152905,40.5550190966479]},"properties":{"nome":"Mercado Velho"}},{"type":"Feature","geometry":{"type":"Point","coordinates":[-8.43660761674163,40.8416037205239]},"properties":{"nome":"Restaurante Pinheiro"}},{"type":"Feature","geometry":{"type":"Point","coordinates":[-8.65540912598106,40.6312428603771]},"properties":{"nome":"Restaurante Universit\u00e1rio \/ Snack-bar"}},{"type":"Feature","geometry":{"type":"Point","coordinates":[-8.64521873129429,40.6398309610478]},"properties":{"nome":"Fonte Nova"}},{"type":"Feature","geometry":{"type":"Point","coordinates":[-8.64078662063178,40.6286815877249]},"properties":{"nome":"Restaurante Muamba"}},{"type":"Feature","geometry":{"type":"Point","coordinates":[-8.47306441160061,40.6707760150172]},"properties":{"nome":"Okapi"}},{"type":"Feature","geometry":{"type":"Point","coordinates":[-8.64542566792063,40.6227692574082]},"properties":{"nome":"Wok Home"}},{"type":"Feature","geometry":{"type":"Point","coordinates":[-8.54464213192402,40.5502473489944]},"properties":{"nome":"Restaurante Dom Rog\u00e9rio"}},{"type":"Feature","geometry":{"type":"Point","coordinates":[-8.74812523301494,40.6402494748289]},"properties":{"nome":"Wok Home"}},{"type":"Feature","geometry":{"type":"Point","coordinates":[-8.46464148057312,40.603141030312]},"properties":{"nome":"O Gaucho"}},{"type":"Feature","geometry":{"type":"Point","coordinates":[-8.47168791522745,40.6864160321012]},"properties":{"nome":"Rei Dos Franguitos"}},{"type":"Feature","geometry":{"type":"Point","coordinates":[-8.50995629916084,40.5436805750541]},"properties":{"nome":"H\u00e1 Tacho"}},{"type":"Feature","geometry":{"type":"Point","coordinates":[-8.67963650231772,40.5759709481405]},"properties":{"nome":"O Palheiro"}},{"type":"Feature","geometry":{"type":"Point","coordinates":[-8.4460086,40.59423305]},"properties":{"nome":"Papa Tudo"}},{"type":"Feature","geometry":{"type":"Point","coordinates":[-8.57984796617276,40.4886305281696]},"properties":{"nome":"Restaurante O Carlos"}},{"type":"Feature","geometry":{"type":"Point","coordinates":[-8.46317451593907,40.8056321096056]},"properties":{"nome":"Restaurante Pouso Alto"}},{"type":"Feature","geometry":{"type":"Point","coordinates":[-8.4545106987873,40.5915843626772]},"properties":{"nome":"Caf\u00e9 Restaurante Estrela Viva"}},{"type":"Feature","geometry":{"type":"Point","coordinates":[-8.56681238718005,40.7850942802379]},"properties":{"nome":"Restaurante La Mirandeza"}},{"type":"Feature","geometry":{"type":"Point","coordinates":[-8.67701272867929,40.8717795706499]},"properties":{"nome":"Casa do Pescador"}},{"type":"Feature","geometry":{"type":"Point","coordinates":[-8.66185975575521,40.8449648740083]},"properties":{"nome":"Restaurante Vela Areinho"}},{"type":"Feature","geometry":{"type":"Point","coordinates":[-8.49115868719555,40.8230904050672]},"properties":{"nome":"Restaurante Ref\u00fagio d'El Rey"}},{"type":"Feature","geometry":{"type":"Point","coordinates":[-8.66663116905753,40.8742230325232]},"properties":{"nome":"Churrascaria Pereira"}},{"type":"Feature","geometry":{"type":"Point","coordinates":[-8.44650774371603,40.5483130230712]},"properties":{"nome":"Retiro do Lago"}},{"type":"Feature","geometry":{"type":"Point","coordinates":[-8.74984545705818,40.6111561575563]},"properties":{"nome":"Restaurante Dori"}},{"type":"Feature","geometry":{"type":"Point","coordinates":[-8.445957,40.5703594]},"properties":{"nome":"Varanda do Rio"}},{"type":"Feature","geometry":{"type":"Point","coordinates":[-8.62068262509352,40.8592075632562]},"properties":{"nome":"Pizzaria Lusitana"}},{"type":"Feature","geometry":{"type":"Point","coordinates":[-8.45537070241842,40.7444140443219]},"properties":{"nome":"Quinta do Palhal"}},{"type":"Feature","geometry":{"type":"Point","coordinates":[-8.64898155136557,40.7300202452693]},"properties":{"nome":"O Bico"}},{"type":"Feature","geometry":{"type":"Point","coordinates":[-8.70004845751826,40.7618677937408]},"properties":{"nome":"Restaurante \"O Veleiro\""}},{"type":"Feature","geometry":{"type":"Point","coordinates":[-8.67555422123721,40.8760533101047]},"properties":{"nome":"Maganinho"}},{"type":"Feature","geometry":{"type":"Point","coordinates":[-8.67558217799538,40.8717456916622]},"properties":{"nome":"Casa Rocha"}},{"type":"Feature","geometry":{"type":"Point","coordinates":[-8.67712944410924,40.8725891187561]},"properties":{"nome":"Concha"}},{"type":"Feature","geometry":{"type":"Point","coordinates":[-8.67690365,40.8722852]},"properties":{"nome":"O Tasco"}},{"type":"Feature","geometry":{"type":"Point","coordinates":[-8.64251998520716,40.6286974037942]},"properties":{"nome":"Os Ossinhos"}},{"type":"Feature","geometry":{"type":"Point","coordinates":[-8.72448782507951,40.6386893331334]},"properties":{"nome":"Casa Z\u00e9 Z\u00e9"}},{"type":"Feature","geometry":{"type":"Point","coordinates":[-8.65806472693226,40.860277649724]},"properties":{"nome":"Snado"}},{"type":"Feature","geometry":{"type":"Point","coordinates":[-8.62231737074797,40.8662029547654]},"properties":{"nome":"Quinta da Varanda"}},{"type":"Feature","geometry":{"type":"Point","coordinates":[-8.47475528833716,40.669501449737]},"properties":{"nome":"As Cubatas - Restaurante"}},{"type":"Feature","geometry":{"type":"Point","coordinates":[-8.456736065426,40.5950936890134]},"properties":{"nome":"Residencial e Restaurante O Trindade"}},{"type":"Feature","geometry":{"type":"Point","coordinates":[-8.51328189272355,40.6901694485359]},"properties":{"nome":"Salvador Caff\u00e9"}},{"type":"Feature","geometry":{"type":"Point","coordinates":[-8.6556241459534,40.8648652940515]},"properties":{"nome":"O \u00c2ngelo"}},{"type":"Feature","geometry":{"type":"Point","coordinates":[-8.65901223823334,40.8646899344903]},"properties":{"nome":"O Bosque"}},{"type":"Feature","geometry":{"type":"Point","coordinates":[-8.4453380829835,40.5716600227308]},"properties":{"nome":null}},{"type":"Feature","geometry":{"type":"Point","coordinates":[-8.44554254434282,40.5717042554665]},"properties":{"nome":null}},{"type":"Feature","geometry":{"type":"Point","coordinates":[-8.44519737039686,40.5714934458773]},"properties":{"nome":"Telhas e Canecos"}},{"type":"Feature","geometry":{"type":"Point","coordinates":[-8.44493435019513,40.5716484589399]},"properties":{"nome":null}},{"type":"Feature","geometry":{"type":"Point","coordinates":[-8.66496084164445,40.8337877028753]},"properties":{"nome":"Casa das Enguias"}},{"type":"Feature","geometry":{"type":"Point","coordinates":[-8.58464861646901,40.8368341892776]},"properties":{"nome":"A Mina"}},{"type":"Feature","geometry":{"type":"Point","coordinates":[-8.5869896885261,40.8418448614028]},"properties":{"nome":"Perola da 109"}},{"type":"Feature","geometry":{"type":"Point","coordinates":[-8.65109147104691,40.6408385825434]},"properties":{"nome":"Pizza Hut"}},{"type":"Feature","geometry":{"type":"Point","coordinates":[-8.65122988022631,40.6407794977838]},"properties":{"nome":"Brasa Rio"}},{"type":"Feature","geometry":{"type":"Point","coordinates":[-8.65137716305316,40.6407580026565]},"properties":{"nome":"Pasta Grill"}},{"type":"Feature","geometry":{"type":"Point","coordinates":[-8.6514156133265,40.6407524724351]},"properties":{"nome":"Ali Kebab"}},{"type":"Feature","geometry":{"type":"Point","coordinates":[-8.61497750363,40.649603539751]},"properties":{"nome":"Patrono Pizza"}},{"type":"Feature","geometry":{"type":"Point","coordinates":[-8.61536018365474,40.6492476751369]},"properties":{"nome":"Porco na Brasa"}},{"type":"Feature","geometry":{"type":"Point","coordinates":[-8.61534370752467,40.6493409773847]},"properties":{"nome":"Galeria Gourmet"}},{"type":"Feature","geometry":{"type":"Point","coordinates":[-8.61533954176847,40.6494368165903]},"properties":{"nome":"Ali Kebab"}},{"type":"Feature","geometry":{"type":"Point","coordinates":[-8.61530173242579,40.649515444837]},"properties":{"nome":"Companhia das Sandes"}},{"type":"Feature","geometry":{"type":"Point","coordinates":[-8.61509406883347,40.8715331736472]},"properties":{"nome":"O Churrasc\u00e3o"}},{"type":"Feature","geometry":{"type":"Point","coordinates":[-8.59731581568749,40.8716840759635]},"properties":{"nome":"Adega do Planalto"}},{"type":"Feature","geometry":{"type":"Point","coordinates":[-8.61329343992628,40.8684267802026]},"properties":{"nome":"Sabor a Picanha"}},{"type":"Feature","geometry":{"type":"Point","coordinates":[-8.47570480042805,40.8583170034998]},"properties":{"nome":"Roteiro"}},{"type":"Feature","geometry":{"type":"Point","coordinates":[-8.65588199033922,40.6427162161992]},"properties":{"nome":"Cais do Pescado - Restaurante Cervejaria"}},{"type":"Feature","geometry":{"type":"Point","coordinates":[-8.61423883187235,40.659441302114]},"properties":{"nome":"O Manel"}},{"type":"Feature","geometry":{"type":"Point","coordinates":[-8.75832145,40.56076565]},"properties":{"nome":"Pica Pau"}},{"type":"Feature","geometry":{"type":"Point","coordinates":[-8.65890097482297,40.8596709470111]},"properties":{"nome":"Restaurante Oxal\u00e1"}},{"type":"Feature","geometry":{"type":"Point","coordinates":[-8.64170586262971,40.6293341559465]},"properties":{"nome":"Rei das Migas"}},{"type":"Feature","geometry":{"type":"Point","coordinates":[-8.44199485622003,40.6511240484551]},"properties":{"nome":"Restaurante \"o Melo\""}},{"type":"Feature","geometry":{"type":"Point","coordinates":[-8.49165915171318,40.700063865338]},"properties":{"nome":null}},{"type":"Feature","geometry":{"type":"Point","coordinates":[-8.53800149054481,40.480247942791]},"properties":{"nome":"Restaurante Secretos Sabores"}},{"type":"Feature","geometry":{"type":"Point","coordinates":[-8.70553332285532,40.6288948170888]},"properties":{"nome":null}},{"type":"Feature","geometry":{"type":"Point","coordinates":[-8.75022606725919,40.5515347013458]},"properties":{"nome":"Duna Verde"}},{"type":"Feature","geometry":{"type":"Point","coordinates":[-8.5474598,40.5423554]},"properties":{"nome":"STOP"}},{"type":"Feature","geometry":{"type":"Point","coordinates":[-8.47810691009816,40.7963314675987]},"properties":{"nome":null}},{"type":"Feature","geometry":{"type":"Point","coordinates":[-8.48911360540678,40.815644027348]},"properties":{"nome":"Restaurante \"El Pata Negra\""}},{"type":"Feature","geometry":{"type":"Point","coordinates":[-8.49889356122662,40.8512384970892]},"properties":{"nome":"Quinta de Santiago"}},{"type":"Feature","geometry":{"type":"Point","coordinates":[-8.48078949194751,40.7037205698707]},"properties":{"nome":"Casa da Teresinha"}}]}